Organisation Name,Telephone Number,Website,Hostname,IP Address,Session Start Date/Time,Monitor Resolution,Operating System,Browser,Device Type,Longitude,Latitude,Country,Town / City,County / State,Registered Address,Entry Page,Keywords,Sources,PPC,Organic,Geolocated,Visit Duration,Page Visits
Qieguo,960-056-9140,http://www.qieguo.com,112.229.7.231,193.248.159.235,10-07-2019 22:38,800 * 600,5.0 (X11; Linux x86_64) AppleWebKit/537.36 (KHTML,Ubuntu Chromium/68.0.3440.106 HeadlessChrome/68.0.3440.106 Safari/537.36,Desktop,-119.699,45.836,United States,Boardman,Oregon,,ee-ip.org/services,,,0,0,0,0,www.ee-ip.org/services
Ctapda,247-305-2362,http://www.ctapda.com,115.93.46.138,188.181.30.60,10-07-2019 12:52,1920 * 1080,5.0 (Windows),Firefox,Desktop,11.5713,49.9456,Germany,Bayreuth,Bayern,,ee-ip.org/articles/detailed/7a63d03adb027ab72323daa86bdbd98d/electric-vehicles-heat-pumps-electric-motors-play-a-crucial-role-in-the-energy-transition,,www.google.com,0,1,0,0,www.ee-ip.org/articles/detailed/7a63d03adb027ab72323daa86bdbd98d/electric-vehicles-heat-pumps-electric-motors-play-a-crucial-role-in-the-energy-transition
Energy,443-404-1418,http://www.energy.com,252.205.215.161,105.84.250.96,10-07-2019 10:04,1536 * 864,5.0 (Windows),Firefox,Desktop,6.87316,50.95802,Germany,Koeln-Vogelsang,Nordrhein-Westfalen,,ee-ip.org/articles/detailed/7a63d03adb027ab72323daa86bdbd98d/electric-vehicles-heat-pumps-electric-motors-play-a-crucial-role-in-the-energy-transition,,www.google.com,0,1,0,143,www.ee-ip.org/articles/detailed/7a63d03adb027ab72323daa86bdbd98d/electric-vehicles-heat-pumps-electric-motors-play-a-crucial-role-in-the-energy-transition --> www.ee-ip.org/articles
Nevidel,635-648-8612,http://www.nevidel.com,142.47.42.103,38.95.127.32,10-07-2019 10:02,2560 * 1440,5.0 (Windows NT 10.0; Win64; x64) AppleWebKit/537,Chrome/75.0.3770.100 Safari/537.36 PTST/SpeedCurve/190626.190633,Desktop,12.58783,55.68051,Denmark,Kobenhavn,Hovedstaden,,ee-ip.org/articles/detailed/6aca03305a9634e44c6fa7393b5fd384/artificial-intelligence-in-energy-management-software,,www.google.com,0,1,0,0,www.ee-ip.org/articles/detailed/6aca03305a9634e44c6fa7393b5fd384/artificial-intelligence-in-energy-management-software
Mydeco,228-031-6180,http://www.mydeco.com,235.243.60.203,55.203.160.244,10-07-2019 09:55,1536 * 864,5.0 (Windows NT 10.0; Win64; x64) AppleWebKit/537,Chrome/75.0.3770.100 Safari/537.36 PTST/SpeedCurve/190626.190633,Desktop,14.5160884,46.0621634,Slovenia,Ljubljana,Ljubljana,,www2.ee-ip.org/content/CompanyPage/show/norsk-energi/file/101_Energy_Management_-_Step_by_Step,,,0,0,1,0,www.www2.ee-ip.org/content/CompanyPage/show/norsk-energi/file/101_Energy_Management_-_Step_by_Step
Ensogo,709-594-7090,http://www.ensogo.com,235.171.48.251,164.151.78.24,10-07-2019 08:31,1920 * 1080,5.0 (Windows),Firefox,Desktop,22.17399,60.43177,Finland,Turku,Varsinais-Suomi,,ee-ip.org,,www.google.com,0,1,0,15,www.ee-ip.org --> www.ee-ip.org/about --> www.ee-ip.org/about
Fanfou,925-725-7302,http://www.fanfou.com,67.238.76.252,132.181.68.224,10-07-2019 07:55,1680 * 1050,5.0 (Windows NT 10.0; Win64; x64) AppleWebKit/537,Chrome/73.0.3683.103 Safari/537.36 OPR/60.0.3255.170 (Edition Campaign 21,Desktop,28.23565,61.04668,Finland,Lappeenranta,Etela-Karjala,,ee-ip.org/articles,,www.ee-ip.org,0,0,0,0,www.ee-ip.org/articles --> www.ee-ip.org/articles
Traffic,553-338-3147,http://www.traffic.com,25.236.187.151,51.28.29.67,10-07-2019 00:19,1920 * 1080,5.0 (Windows NT 10.0; Win64; x64) AppleWebKit/537,Chrome/75.0.3770.100 Safari/537.36 PTST/SpeedCurve/190626.190633,Desktop,-122.16727,37.40432,United States,Palo Alto,California,,ee-ip.org/articles/detailed/87f4ab4b1d6c3c767a9dcae1e30b0808/the-technical-potential-of-large-and-industrial-heat-pumps,,www.google.com,0,1,0,0,www.ee-ip.org/articles/detailed/87f4ab4b1d6c3c767a9dcae1e30b0808/the-technical-potential-of-large-and-industrial-heat-pumps
Qieguo,960-056-9140,http://www.qieguo.com,51.81.210.39,3.236.130.159,09-07-2019 20:44,800 * 600,5.0 (X11; Linux x86_64) AppleWebKit/537.36 (KHTML,Ubuntu Chromium/68.0.3440.106 HeadlessChrome/68.0.3440.106 Safari/537.36,Desktop,-119.699,45.836,United States,Boardman,Oregon,,ee-ip.org/services,,,0,0,0,0,www.ee-ip.org/services
Macleans,330-883-6440,http://www.macleans.com,148.102.217.135,187.88.15.2,09-07-2019 17:36,1979 * 1113,5.0 (Windows NT 10.0; WOW64; Trident/7.0; .NET4.0,Firefox,Desktop,10.39064,55.39624,Denmark,Odense,Syddanmark,,ee-ip.org/articles/detailed/219bd012d74c75756eb8340db1aa8b40/5-steps-for-a-robust-energy-strategy,,www.google.com,0,1,0,0,www.ee-ip.org/articles/detailed/219bd012d74c75756eb8340db1aa8b40/5-steps-for-a-robust-energy-strategy
Erento,403-839-5755,http://www.erento.com,142.208.152.93,173.200.44.216,09-07-2019 17:35,360 * 780,5.0 (Linux; Android 9; SM-A505FN) AppleWebKit/537,Version/4.0 Chrome/72.0.3626.121 Mobile Safari/537.36 YJApp-ANDROID jp.co.yahoo.android.ybrowser/2.16.0.1,Mobile,-1.1101707,52.6366827,United Kingdom,Leicester,Leicester,"54 Marsh Wall, London, E14 9TP",ee-ip.org/articles/detailed/1f94823dd90fe3a2b15e3b8f992c2d96/local-energy-aggregation-similarities-between-the-italian-hera-group-and-the-community-choice-energ,,www.google.com,0,1,1,0,www.ee-ip.org/articles/detailed/1f94823dd90fe3a2b15e3b8f992c2d96/local-energy-aggregation-similarities-between-the-italian-hera-group-and-the-community-choice-energ
Speedtv,638-877-9962,http://www.speedtv.com,243.100.181.40,106.244.149.180,09-07-2019 10:11,1152 * 720,5.0 (Windows NT 10.0; WOW64; Trident/7.0; .NET4.0,Firefox,Desktop,12.3063,41.7755,Italy,Roma,Roma,,ee-ip.org/events/detailed/fe5ab9cc6d16bb52b19f099b4da8124c/sustainable-energy-investment-forum-financing-energy-efficiency-in-germany-france-and-austria,,www.google.it,0,1,0,0,www.ee-ip.org/events/detailed/fe5ab9cc6d16bb52b19f099b4da8124c/sustainable-energy-investment-forum-financing-energy-efficiency-in-germany-france-and-austria
Elhyaah,841-864-7008,http://www.elhyaah.com,225.15.249.57,181.105.64.168,09-07-2019 09:23,1366 * 768,5.0 (Windows NT 6.1; Win64; x64) AppleWebKit/537.,Chrome/75.0.3770.100 Safari/537.36 PTST/SpeedCurve/190626.190633,Desktop,44.83368,41.69411,Georgia,Tbilisi,Tbilisi,,ee-ip.org/articles/detailed/7cc969ab93f80c76a54ecc339c544ae9/turkey-industrial-energy-efficiency-strategy,,www.google.com,0,1,0,110,www.ee-ip.org/articles/detailed/7cc969ab93f80c76a54ecc339c544ae9/turkey-industrial-energy-efficiency-strategy --> www.ee-ip.org/articles --> www.ee-ip.org/services --> www.ee-ip.org --> www.ee-ip.org/services --> www.ee-ip.org/articles --> www.ee-ip.org/articles/detailed/7cc969ab93f80c76a54ecc339c544ae9/turkey-industrial-energy-efficiency-strategy
Fanfou,925-725-7302,http://www.fanfou.com,67.238.76.252,132.181.68.224,09-07-2019 07:44,1680 * 1050,5.0 (Windows NT 10.0; Win64; x64) AppleWebKit/537,Chrome/73.0.3683.103 Safari/537.36 OPR/60.0.3255.170 (Edition Campaign 21,Desktop,28.23565,61.04668,Finland,Lappeenranta,Etela-Karjala,,ee-ip.org/articles,,www.ee-ip.org,0,0,0,0,www.ee-ip.org/articles --> www.ee-ip.org/articles
Acronis,724-367-7408,http://www.acronis.com,196.36.175.21,214.9.56.189,08-07-2019 15:51,1344 * 840,5.0 (Windows NT 10.0; Win64; x64) AppleWebKit/537,Chrome/75.0.3770.100 Safari/537.36 PTST/SpeedCurve/190626.190633,Desktop,-90.32606,38.64533,United States,Saint Louis,Missouri,,ee-ip.org/articles/detailed/e360b8ba312356f89fce2817eb9aa841/choosing-the-best-techniques-for-waste-heat-recovery,,www.google.com,0,1,0,0,www.ee-ip.org/articles/detailed/e360b8ba312356f89fce2817eb9aa841/choosing-the-best-techniques-for-waste-heat-recovery
Alinea,227-195-4615,http://www.alinea.com,219.78.28.169,190.147.227.86,08-07-2019 15:00,1280 * 720,5.0 (Windows NT 10.0; Win64; x64) AppleWebKit/537,Chrome/75.0.3770.100 Safari/537.36 PTST/SpeedCurve/190626.190633,Desktop,9.2376,45.5135,Italy,Milano,Milano,,ee-ip.org,,www.google.com,0,1,0,1173,www.ee-ip.org --> www.ee-ip.org
Branders,956-179-1739,http://www.branders.com,39.55.231.137,119.112.179.201,08-07-2019 14:43,2560 * 1440,5.0 (Windows NT 10.0; Win64; x64) AppleWebKit/537,Chrome/64.0.3282.140 Safari/537.36 Edge/18.17763,Desktop,139.63816,35.56698,Japan,Kawasaki-Shi,Kanagawa,,ee-ip.org/articles/detailed/1e5b82080686ae02120cc4a9400ac380/the-4th-utility-compressed-air,,www.google.com,0,1,0,0,www.ee-ip.org/articles/detailed/1e5b82080686ae02120cc4a9400ac380/the-4th-utility-compressed-air
Mysimon,632-463-3465,http://www.mysimon.com,252.125.0.126,29.246.184.45,08-07-2019 12:42,1500 * 1000,5.0 (Windows NT 10.0; Win64; x64) AppleWebKit/537,Chrome/75.0.3770.100 Safari/537.36 PTST/SpeedCurve/190626.190633,Desktop,4.35249,50.84674,Belgium,Brussels,Brussels,,ee-ip.org,,www.google.com,0,1,0,4677,www.ee-ip.org --> www.ee-ip.org --> www.ee-ip.org/articles
Kazatube,724-367-7408,,199.80.39.62,38.222.50.43,08-07-2019 09:42,384 * 800,5.0 (Linux; Android 4.2.1; en-us; Nexus 5 Build/J,Chrome/38.0.1025.166 Mobile Safari/535.19,Mobile,-1.61083,6.68944,Ghana,Kumasi,Ashanti,,www2.ee-ip.org/content/CompanyPage/show/edur-pumpenfabrik,,,0,0,0,0,www.www2.ee-ip.org/content/CompanyPage/show/edur-pumpenfabrik
Qieguo,960-056-9140,http://www.qieguo.com,186.240.155.178,152.24.180.147,08-07-2019 00:35,1366 * 768,5.0 (X11; Linux x86_64) AppleWebKit/537.36 (KHTML,Chrome/60.0.3112.50 Safari/537.36,Desktop,-82.99946,39.99558,United States,Columbus,Ohio,,ee-ip.org,,,0,0,0,9,www.ee-ip.org --> www.ee-ip.org/about --> www.www2.ee-ip.org/content/CompanyPage/show/european-copper-institute/file/325_10_Facts_about_Energy_Management --> www.ee-ip.org/privacy
Fichajes,271-632-7655,http://www.fichajes.com,18.205.96.104,148.195.69.245,07-07-2019 11:39,1280 * 960,"""5.0 (compatible; YandexBot/3.0; +http://yandex.co""",Firefox,Desktop,-121.90678,37.34217,United States,San Jose,California,,ee-ip.org/articles/detailed,,,0,0,0,0,www.ee-ip.org/articles/detailed
Taipei,543-664-3092,http://www.taipei.com,174.121.176.202,49.120.55.113,06-07-2019 20:08,1600 * 900,5.0 (Windows NT 10.0; Win64; x64) AppleWebKit/537,Chrome/64.0.3282.140 Safari/537.36 Edge/17.17134,Desktop,-95.36769,29.75021,United States,Houston,Texas,,ee-ip.org/events,,www.ee-ip.org,0,0,0,0,www.ee-ip.org/events
Qieguo,960-056-9140,http://www.qieguo.com,136.32.177.10,64.183.138.150,06-07-2019 06:11,1366 * 768,5.0 (X11; Linux x86_64) AppleWebKit/537.36 (KHTML,Chrome/60.0.3112.50 Safari/537.36,Desktop,-82.99946,39.99558,United States,Columbus,Ohio,,ee-ip.org,,,0,0,0,5,www.ee-ip.org --> www.ee-ip.org/about --> www.www2.ee-ip.org/content/CompanyPage/show/european-copper-institute/file/325_10_Facts_about_Energy_Management --> www.ee-ip.org/privacy
Sabunta,636-034-5005,http://www.sabunta.com,36.120.94.243,61.104.70.26,05-07-2019 10:52,1920 * 1200,5.0 (Windows NT 6.1; Win64; x64) AppleWebKit/537.,Chrome/75.0.3770.100 Safari/537.36 PTST/SpeedCurve/190626.190633,Desktop,8.6821,50.1109,Germany,Frankfurt Am Main,Hessen,,www2.ee-ip.org/content/CompanyPage/show/econ-solutions-gmbh/file/309_Mit_Energie_in_die_vernetzte_Fabrik,,www.google.com,0,1,0,0,www.www2.ee-ip.org/content/CompanyPage/show/econ-solutions-gmbh/file/309_Mit_Energie_in_die_vernetzte_Fabrik
Ongame,638-809-0173,http://www.ongame.com,78.223.1.185,55.203.235.152,05-07-2019 09:36,1920 * 1080,5.0 (Windows),Firefox,Desktop,4.917,52.35,Netherlands,Amsterdam,Noord-Holland,,ee-ip.org/about,,www.google.com,0,1,0,0,www.ee-ip.org/about
Fanfou,925-725-7302,http://www.fanfou.com,67.238.76.252,132.181.68.224,05-07-2019 07:33,1680 * 1050,5.0 (Windows NT 10.0; Win64; x64) AppleWebKit/537,Chrome/73.0.3683.103 Safari/537.36 OPR/60.0.3255.170 (Edition Campaign 21,Desktop,28.23565,61.04668,Finland,Lappeenranta,Etela-Karjala,,ee-ip.org/articles,,www.ee-ip.org,0,0,0,0,www.ee-ip.org/articles
Lagsoft,356-249-8047,http://www.lagsoft.com,54.239.129.21,188.129.236.2,04-07-2019 15:47,2133 * 1200,5.0 (Windows NT 10.0; Win64; x64) AppleWebKit/537,Chrome/64.0.3282.140 Safari/537.36 Edge/18.17763,Desktop,11.0768,49.452,Germany,Nuernberg,Bayern,,www2.ee-ip.org/content/CompanyPage/show/norsk-energi/file/102_Energy_Recovery_in_Metallurgical_Industry,,t.co,0,0,0,0,www.www2.ee-ip.org/content/CompanyPage/show/norsk-energi/file/102_Energy_Recovery_in_Metallurgical_Industry
Tagshub,811-138-0349,http://www.tagshub.com,18.3.146.113,61.204.73.17,04-07-2019 15:44,1920 * 1200,5.0 (Windows),Firefox,Desktop,8.53695,47.37417,Switzerland,Zuerich,Zuerich,,ee-ip.org/articles/detailed/5744e330c75634733f10ed7a0b23a649/simply-not-enough,,www.google.com,0,1,0,0,www.ee-ip.org/articles/detailed/5744e330c75634733f10ed7a0b23a649/simply-not-enough
Testking,378-415-6197,http://www.testking.com,56.189.82.110,203.219.185.38,04-07-2019 15:25,1920 * 1080,5.0 (Windows NT 6.3; Win64; x64) AppleWebKit/537.,Chrome/75.0.3770.80 Safari/537.36 OPR/62.0.3331.18,Desktop,4.62501,52.45821,Netherlands,Ijmuiden,Noord-Holland,,www2.ee-ip.org/content/CompanyPage/show/norsk-energi/file/102_Energy_Recovery_in_Metallurgical_Industry,,t.co,0,0,0,0,www.www2.ee-ip.org/content/CompanyPage/show/norsk-energi/file/102_Energy_Recovery_in_Metallurgical_Industry
Tanzil,663-082-0807,http://www.tanzil.com,18.86.62.192,56.210.212.245,03-07-2019 20:03,1600 * 900,5.0 (Windows NT 10.0; Win64; x64) AppleWebKit/537,Chrome/75.0.3770.100 Safari/537.36 PTST/SpeedCurve/190626.190633,Desktop,-74.4816,40.7968,United States,Morristown,New Jersey,,ee-ip.org/articles/detailed/6aca03305a9634e44c6fa7393b5fd384/artificial-intelligence-in-energy-management-software,,www.google.com,0,1,0,285,www.ee-ip.org/articles/detailed/6aca03305a9634e44c6fa7393b5fd384/artificial-intelligence-in-energy-management-software --> www.ee-ip.org/articles/detailed/d9c5219111daf80821392c52155b09ca/can-data-analytics-replace-people-in-energy-efficiency
Deepin,904-519-3727,http://www.deepin.com,2.47.224.191,5.247.14.171,03-07-2019 11:18,1920 * 1080,5.0 (Windows NT 10.0; Win64; x64) AppleWebKit/537,Chrome/52.0.2743.116 Safari/537.36 Edge/15.15063,Desktop,15.665,46.578,Slovenia,Kosaki,Maribor,,ee-ip.org/articles/detailed/b875c3e979720a90462f44fb4669d063/how-greece-drives-energy-efficiency-5-innovative-companies,,,0,0,0,0,www.ee-ip.org/articles/detailed/b875c3e979720a90462f44fb4669d063/how-greece-drives-energy-efficiency-5-innovative-companies
Gavros,384-631-1482,http://www.gavros.com,207.35.162.157,165.133.229.120,03-07-2019 10:49,1280 * 720,5.0 (Windows NT 10.0; Win64; x64) AppleWebKit/537,Chrome/75.0.3770.100 Safari/537.36 PTST/SpeedCurve/190626.190633,Desktop,9.9937,53.5511,Germany,Hamburg,Hamburg,,ee-ip.org/articles/detailed/ef1380f71ca6a485cb75724f21b675d8/the-benefit-of-compressed-air-systems-becoming-smart-a-boge-example,,www.google.com,0,1,0,0,www.ee-ip.org/articles/detailed/ef1380f71ca6a485cb75724f21b675d8/the-benefit-of-compressed-air-systems-becoming-smart-a-boge-example
Fanfou,925-725-7302,http://www.fanfou.com,67.238.76.252,132.181.68.224,03-07-2019 07:36,1680 * 1050,5.0 (Windows NT 10.0; Win64; x64) AppleWebKit/537,Chrome/73.0.3683.103 Safari/537.36 OPR/60.0.3255.170 (Edition Campaign 21,Desktop,28.23565,61.04668,Finland,Lappeenranta,Etela-Karjala,,ee-ip.org/articles,,www.ee-ip.org,0,0,0,0,www.ee-ip.org/articles
Schneier,200-427-4926,http://www.schneier.com,186.185.97.185,48.12.47.163,02-07-2019 12:57,1024 * 768,5.0 (Windows),Firefox,Desktop,10.0107,53.5583,Germany,Hamburg,Hamburg,,ee-ip.org,,,0,0,0,,www.ee-ip.org
Rankage,407-506-7591,http://www.rankage.com,28.6.89.238,171.128.80.174,02-07-2019 12:06,1536 * 864,5.0 (Windows NT 10.0; Win64; x64) AppleWebKit/537,Chrome/75.0.3770.100 Safari/537.36 PTST/SpeedCurve/190626.190633,Desktop,4.47013,50.88769,Belgium,Zaventem,Vlaams-Brabant,,ee-ip.org,,www.google.com,0,1,0,,www.ee-ip.org --> www.ee-ip.org/about
Schneier,200-427-4926,http://www.schneier.com,186.185.97.185,48.12.47.163,02-07-2019 10:28,1920 * 1200,5.0 (X11),Firefox,Desktop,10.0107,53.5583,Germany,Hamburg,Hamburg,,ee-ip.org,,,0,0,0,,www.ee-ip.org --> www.ee-ip.org/about --> www.ee-ip.org/about --> www.ee-ip.org
Speedtv,866-218-3922,http://www.speedtv.com,208.56.182.138,11.60.196.125,02-07-2019 09:17,1366 * 768,5.0 (Windows NT 10.0; WOW64) AppleWebKit/537.36 (,Chrome/75.0.3770.100 Safari/537.36 PTST/SpeedCurve/190626.190633,Desktop,2.34107,48.86023,France,Paris,Paris,,ee-ip.org/articles/detailed/6aca03305a9634e44c6fa7393b5fd384/artificial-intelligence-in-energy-management-software,,www.google.com,0,1,0,,www.ee-ip.org/articles/detailed/6aca03305a9634e44c6fa7393b5fd384/artificial-intelligence-in-energy-management-software
Fanfou,925-725-7302,http://www.fanfou.com,67.238.76.252,132.181.68.224,02-07-2019 08:32,1680 * 1050,5.0 (Windows NT 10.0; Win64; x64) AppleWebKit/537,Chrome/73.0.3683.103 Safari/537.36 OPR/60.0.3255.170 (Edition Campaign 21,Desktop,28.23565,61.04668,Finland,Lappeenranta,Etela-Karjala,,ee-ip.org/articles,,www.ee-ip.org,0,0,0,,www.ee-ip.org/articles
Taipei,543-664-3092,http://www.taipei.com,174.121.176.202,49.120.55.113,01-07-2019 20:43,1600 * 900,5.0 (Windows NT 10.0; Win64; x64) AppleWebKit/537,Chrome/64.0.3282.140 Safari/537.36 Edge/17.17134,Desktop,-95.36769,29.75021,United States,Houston,Texas,,ee-ip.org/events/detailed/6759996f66ae1654afb775f685da6657/iea-global-conference-on-energy-efficiency-2018,,www.bing.com,0,1,0,,www.ee-ip.org/events/detailed/6759996f66ae1654afb775f685da6657/iea-global-conference-on-energy-efficiency-2018 --> www.ee-ip.org --> www.ee-ip.org/about --> www.ee-ip.org/articles --> www.ee-ip.org/nc/business-practices --> www.ee-ip.org/nc/business-practices --> www.ee-ip.org/events
Juiceadv,225-747-8139,http://www.juiceadv.com,43.171.219.111,22.153.123.194,01-07-2019 17:45,1536 * 864,5.0 (Windows NT 10.0; Win64; x64) AppleWebKit/537,Chrome/75.0.3770.100 Safari/537.36 PTST/SpeedCurve/190626.190633,Desktop,9.192,45.472,Italy,Milano,Milano,,www2.ee-ip.org/content/CompanyPage/show/swep-international/file/439_ORC-systems_are_helping_to_create_a_sustainable_energy_future,,www.linkedin.com,0,1,0,,www.www2.ee-ip.org/content/CompanyPage/show/swep-international/file/439_ORC-systems_are_helping_to_create_a_sustainable_energy_future
Python,829-474-5878,http://www.python.com,149.94.173.120,0.39.227.241,01-07-2019 15:19,2110 * 1187,5.0 (Windows NT 10.0; Win64; x64) AppleWebKit/537,Chrome/64.0.3282.140 Safari/537.36 Edge/17.17134,Desktop,8.496,49.009,Germany,Groetzingen,Baden-Wuerttemberg,,www2.ee-ip.org/content/CompanyPage/show/kownatzki-technology/file/232_Koennen_Planetenrollengetriebe_Hydraulik_ersetzen_,,www.google.de,0,1,0,,www.www2.ee-ip.org/content/CompanyPage/show/kownatzki-technology/file/232_Koennen_Planetenrollengetriebe_Hydraulik_ersetzen_
Magentic,724-367-7408,,106.161.154.232,86.192.233.202,01-07-2019 15:15,1280 * 768,5.0 (Windows NT 6.1; Win64; x64) AppleWebKit/537.,Chrome/75.0.3770.100 Safari/537.36 PTST/SpeedCurve/190626.190633,Desktop,4.35249,50.84674,Belgium,Brussels,Brussels,,ee-ip.org,,,0,0,0,,www.ee-ip.org
Schneier,200-427-4926,http://www.schneier.com,186.185.97.185,48.12.47.163,01-07-2019 11:22,1920 * 1200,5.0 (X11),Firefox,Desktop,10.0107,53.5583,Germany,Hamburg,Hamburg,,ee-ip.org,,,0,0,0,36,www.ee-ip.org --> www.ee-ip.org/about --> www.ee-ip.org/legal-notices --> www.ee-ip.org
Qieguo,960-056-9140,http://www.qieguo.com,207.104.50.33,38.120.244.61,30-06-2019 10:56,1366 * 768,5.0 (X11; Linux x86_64) AppleWebKit/537.36 (KHTML,Chrome/60.0.3112.50 Safari/537.36,Desktop,-82.99946,39.99558,United States,Columbus,Ohio,,ee-ip.org,,,0,0,0,0,www.ee-ip.org
Schneier,200-427-4926,http://www.schneier.com,54.41.80.112,199.65.199.214,28-06-2019 13:37,1920 * 1200,5.0 (Windows),Firefox,Desktop,10.0107,53.5583,Germany,Hamburg,Hamburg,,ee-ip.org,,www.google.com,0,1,0,16,www.ee-ip.org --> www.ee-ip.org/about
Linkcool,724-367-7408,,41.171.17.241,243.170.143.141,28-06-2019 10:26,1477 * 923,5.0 (Windows NT 10.0; WOW64; Trident/7.0; .NET4.0,Firefox,Desktop,27.56644,47.16855,Romania,Iasi,Iasi,,ee-ip.org/articles/detailed/7a63d03adb027ab72323daa86bdbd98d/electric-vehicles-heat-pumps-electric-motors-play-a-crucial-role-in-the-energy-transition,,www.google.ro,0,1,0,0,www.ee-ip.org/articles/detailed/7a63d03adb027ab72323daa86bdbd98d/electric-vehicles-heat-pumps-electric-motors-play-a-crucial-role-in-the-energy-transition
Schneier,200-427-4926,http://www.schneier.com,186.185.97.185,48.12.47.163,28-06-2019 09:53,1920 * 1200,5.0 (X11),Firefox,Desktop,10.0107,53.5583,Germany,Hamburg,Hamburg,,ee-ip.org,,www.google.com,0,1,0,1605,www.ee-ip.org --> www.ee-ip.org
Redhat,724-367-7408,http://www.magentic.com,218.197.228.17,56.106.228.108,27-06-2019 19:53,1600 * 900,5.0 (Windows NT 10.0; Win64; x64) AppleWebKit/537,Chrome/74.0.3729.169 Safari/537.36,Desktop,28.05639,-26.19917,South Africa,Johannesburg,Gauteng,,www2.ee-ip.org/content/CompanyPage/show/solvera-lynx/file/399_Energy_Management_System_in_steel_industry,,2llox.r.a.d.sendibm1.com,0,0,0,0,www.www2.ee-ip.org/content/CompanyPage/show/solvera-lynx/file/399_Energy_Management_System_in_steel_industry
Esdlife,724-367-7408,,207.226.211.106,152.197.233.136,27-06-2019 18:43,1366 * 768,5.0 (Windows NT 10.0; Win64; x64) AppleWebKit/537,Chrome/74.0.3729.169 Safari/537.36,Desktop,26.09935,44.43655,Romania,Bucuresti,Bucuresti,,ee-ip.org/articles,,,0,0,0,3,www.ee-ip.org/articles --> www.ee-ip.org/articles/detailed/628f0f1eee2e8315aa40601b5c379f3c/what-the-energy-efficiency-community-can-learn-from-the-club-of-rome
Linkmela,311-231-7050,http://www.linkcool.com,178.98.157.102,94.14.223.53,27-06-2019 18:38,1280 * 800,5.0 (Macintosh; Intel Mac OS X 10_14_5) AppleWebK,Chrome/75.0.3770.100 Safari/537.36 PTST/SpeedCurve/190626.190633,Mac,14.2352,40.8362,Italy,Napoli,Napoli,,ee-ip.org,,www.google.com,0,1,0,0,www.ee-ip.org
Esdlife,724-367-7408,,207.226.211.106,152.197.233.136,27-06-2019 18:20,360 * 640,5.0 (Linux; Android 6.0; ALE-L21) AppleWebKit/537,Version/4.0 Chrome/75.0.3770.101 Mobile Safari/537.36 Instagram 99.0.0.32.182 Android (28/9; 480dpi; 1080x2139; HUAWEI; POT-LX1; HWPOT-H; kirin710; en_GB; 160497915,Mobile,26.09935,44.43655,Romania,Bucuresti,Bucuresti,,ee-ip.org/articles/detailed/628f0f1eee2e8315aa40601b5c379f3c/what-the-energy-efficiency-community-can-learn-from-the-club-of-rome,,,0,0,0,535,www.ee-ip.org/articles/detailed/628f0f1eee2e8315aa40601b5c379f3c/what-the-energy-efficiency-community-can-learn-from-the-club-of-rome --> www.ee-ip.org/articles/detailed/628f0f1eee2e8315aa40601b5c379f3c/what-the-energy-efficiency-community-can-learn-from-the-club-of-rome
Forumpro,352-171-2345,http://www.redhat.com,141.215.133.58,225.226.68.224,27-06-2019 17:55,1290 * 726,5.0 (Windows NT 10.0; Win64; x64) AppleWebKit/537,Chrome/64.0.3282.140 Safari/537.36 Edge/17.17134,Desktop,7.22739,50.14529,Germany,Ernst,Rheinland-Pfalz,,ee-ip.org/articles/detailed/b97292b5e1a44315e76ff3c246b183f1/digital-transformation-of-energy-utilities-shifting-gears,,www.bing.com,0,1,0,0,www.ee-ip.org/articles/detailed/b97292b5e1a44315e76ff3c246b183f1/digital-transformation-of-energy-utilities-shifting-gears
Bikhir,528-762-1187,http://www.esdlife.com,83.93.239.242,224.135.171.227,27-06-2019 16:28,1680 * 1050,5.0 (Windows),Firefox,Desktop,-1.27556,51.75,United Kingdom,Oxford,Oxfordshire,,ee-ip.org,,,0,0,0,3,www.ee-ip.org --> www.ee-ip.org --> www.ee-ip.org
Bikhir,528-762-1187,http://www.esdlife.com,83.93.239.242,224.135.171.227,27-06-2019 16:28,1680 * 1050,5.0 (Windows),Firefox,Desktop,-1.27556,51.75,United Kingdom,Oxford,Oxfordshire,,ee-ip.org,,,0,0,0,0,www.ee-ip.org
Anunico,317-042-0051,http://www.linkmela.com,163.237.40.1,255.231.2.223,27-06-2019 15:09,1280 * 1024,5.0 (Windows NT 10.0; WOW64; Trident/7.0; .NET4.0,Firefox,Desktop,6.10624,49.61624,Luxembourg,Luxembourg,Luxembourg,,ee-ip.org/events/detailed/5d8db8f6b7b48c5c1bae69bc2a4ffbc3/2019-summer-study-on-energy-efficiency-in-industry-aceee,,2llox.r.a.d.sendibm1.com,0,0,0,0,www.ee-ip.org/events/detailed/5d8db8f6b7b48c5c1bae69bc2a4ffbc3/2019-summer-study-on-energy-efficiency-in-industry-aceee
Arikair,552-235-5029,http://www.forumpro.com,154.88.83.24,80.66.68.229,27-06-2019 14:43,1536 * 960,5.0 (Windows),Firefox,Desktop,8.4258,49.4788,Germany,Ludwigshafen Am Rhein,Rheinland-Pfalz,,ee-ip.org/articles/detailed/7a63d03adb027ab72323daa86bdbd98d/electric-vehicles-heat-pumps-electric-motors-play-a-crucial-role-in-the-energy-transition,,2llox.r.a.d.sendibm1.com,0,0,0,0,www.ee-ip.org/articles/detailed/7a63d03adb027ab72323daa86bdbd98d/electric-vehicles-heat-pumps-electric-motors-play-a-crucial-role-in-the-energy-transition
Arikair,552-235-5029,http://www.forumpro.com,154.88.83.24,80.66.68.229,27-06-2019 14:43,1536 * 960,5.0 (Windows),Firefox,Desktop,8.4258,49.4788,Germany,Ludwigshafen Am Rhein,Rheinland-Pfalz,,ee-ip.org/articles/detailed/7a63d03adb027ab72323daa86bdbd98d/electric-vehicles-heat-pumps-electric-motors-play-a-crucial-role-in-the-energy-transition,,2llox.r.a.d.sendibm1.com,0,0,0,0,www.ee-ip.org/articles/detailed/7a63d03adb027ab72323daa86bdbd98d/electric-vehicles-heat-pumps-electric-motors-play-a-crucial-role-in-the-energy-transition
Arikair,552-235-5029,http://www.forumpro.com,154.88.83.24,80.66.68.229,27-06-2019 14:43,1536 * 960,5.0 (Windows),Firefox,Desktop,8.4258,49.4788,Germany,Ludwigshafen Am Rhein,Rheinland-Pfalz,,ee-ip.org/articles/detailed/7a63d03adb027ab72323daa86bdbd98d/electric-vehicles-heat-pumps-electric-motors-play-a-crucial-role-in-the-energy-transition,,2llox.r.a.d.sendibm1.com,0,0,0,0,www.ee-ip.org/articles/detailed/7a63d03adb027ab72323daa86bdbd98d/electric-vehicles-heat-pumps-electric-motors-play-a-crucial-role-in-the-energy-transition
Mobgold,460-334-2227,http://www.bikhir.com,104.188.235.29,29.242.27.45,27-06-2019 14:14,1366 * 768,5.0 (Windows NT 6.1; Trident/7.0; SLCC2; .NET CLR,Firefox,Desktop,-66.64211,45.95664,Canada,Fredericton,New Brunswick,,www2.ee-ip.org/contentmailing,,2llox.r.a.d.sendibm1.com,0,0,0,77,www.www2.ee-ip.org/contentmailing --> www.www2.ee-ip.org/contentmailing
Growmap,711-974-6305,http://www.anunico.com,12.210.141.0,148.78.103.93,27-06-2019 14:10,1366 * 768,5.0 (Windows NT 10.0; WOW64) AppleWebKit/537.36 (,Chrome/73.0.3683.75 ADG/11.0.2319 Safari/537.36,Desktop,-80.5098,27.96705,United States,Melbourne Beach,Florida,,www2.ee-ip.org/content/CompanyPage/show/european-copper-institute/file/320_10_Facts_about_Building_Automation,,2llox.r.a.d.sendibm1.com,0,0,0,0,www.www2.ee-ip.org/content/CompanyPage/show/european-copper-institute/file/320_10_Facts_about_Building_Automation
Anunico,317-042-0051,http://www.linkmela.com,163.237.40.1,255.231.2.223,27-06-2019 13:43,1920 * 1080,5.0 (Windows NT 10.0; WOW64; Trident/7.0; Touch; ,Firefox,Desktop,6.10624,49.61624,Luxembourg,Luxembourg,Luxembourg,,www2.ee-ip.org/content/CompanyPage/show/european-copper-institute/file/320_10_Facts_about_Building_Automation,,2llox.r.a.d.sendibm1.com,0,0,0,202,www.www2.ee-ip.org/content/CompanyPage/show/european-copper-institute/file/320_10_Facts_about_Building_Automation --> www.ee-ip.org/articles/detailed/628f0f1eee2e8315aa40601b5c379f3c/what-the-energy-efficiency-community-can-learn-from-the-club-of-rome
Hostlogr,932-063-6504,http://www.arikair.com,189.159.26.69,156.186.121.174,27-06-2019 13:37,1280 * 720,5.0 (Windows),Firefox,Desktop,37.6366,55.76441,Russian Federation,Moskva,Moskva,,ee-ip.org/articles/detailed/7a63d03adb027ab72323daa86bdbd98d/electric-vehicles-heat-pumps-electric-motors-play-a-crucial-role-in-the-energy-transition,,2llox.r.a.d.sendibm1.com,0,0,0,0,www.ee-ip.org/articles/detailed/7a63d03adb027ab72323daa86bdbd98d/electric-vehicles-heat-pumps-electric-motors-play-a-crucial-role-in-the-energy-transition
Automn,724-367-7408,,55.225.111.96,32.239.168.160,27-06-2019 13:36,1440 * 900,5.0 (Windows NT 6.1; WOW64; Trident/7.0; SLCC2; .,Firefox,Desktop,-0.03849,39.98764,Spain,Castellon De La Plana,Castellon,,ee-ip.org/articles/detailed/628f0f1eee2e8315aa40601b5c379f3c/what-the-energy-efficiency-community-can-learn-from-the-club-of-rome,,2llox.r.a.d.sendibm1.com,0,0,0,206,www.ee-ip.org/articles/detailed/628f0f1eee2e8315aa40601b5c379f3c/what-the-energy-efficiency-community-can-learn-from-the-club-of-rome --> www.ee-ip.org/articles
Lifehack,558-987-7035,http://www.mobgold.com,104.214.60.200,112.169.132.76,27-06-2019 13:34,412 * 846,5.0 (Linux; Android 9; SAMSUNG SM-G955F Build/PPR,SamsungBrowser/9.2 Chrome/67.0.3396.87 Mobile Safari/537.36,Mobile,26.09935,44.43655,Romania,Bucuresti,Bucuresti,,ee-ip.org/articles/detailed/628f0f1eee2e8315aa40601b5c379f3c/what-the-energy-efficiency-community-can-learn-from-the-club-of-rome,,2llox.r.a.d.sendibm1.com,0,0,0,0,www.ee-ip.org/articles/detailed/628f0f1eee2e8315aa40601b5c379f3c/what-the-energy-efficiency-community-can-learn-from-the-club-of-rome
Taosoft,452-538-4755,http://www.growmap.com,42.83.198.28,221.211.190.156,26-06-2019 19:12,1829 * 1143,5.0 (Windows NT 10.0; Win64; x64) AppleWebKit/537,Chrome/58.0.3029.110 Safari/537.36 Edge/16.16299,Desktop,7.45109,46.99832,Switzerland,Zollikofen,Bern,,www2.ee-ip.org/content/CompanyPage/show/batinew-sa,,www.google.com,0,1,0,124,www.www2.ee-ip.org/content/CompanyPage/show/batinew-sa --> www.ee-ip.org --> www.www2.ee-ip.org/content/CompanyPage/show/batinew-sa
Inkclub,890-516-7635,http://www.hostlogr.com,169.216.68.185,252.226.27.78,26-06-2019 16:28,1280 * 1024,"5.0 (Windows NT 6.1) AppleWebKit/537.36 (KHTML, l",HeadlessChrome/75.0.3770.100 Safari/537.36,Desktop,72.8777,19.076,India,Mumbai,Maharashtra,,ee-ip.org/articles/detailed/34260b0b3988ea8db952bd0136a17120/glass-industry-16-emerging-technologies-for-energy-efficiency-and-ghg-emissions-reduction,,,0,0,0,0,www.ee-ip.org/articles/detailed/34260b0b3988ea8db952bd0136a17120/glass-industry-16-emerging-technologies-for-energy-efficiency-and-ghg-emissions-reduction
Digiday,829-214-0870,http://www.automn.com,47.187.100.72,140.127.82.99,26-06-2019 11:22,1920 * 1200,5.0 (Windows),Firefox,Desktop,10.0194,53.5481,Germany,Hamburg,Hamburg,,ee-ip.org,,www.google.com,0,1,0,0,www.ee-ip.org
Schneier,200-427-4926,http://www.schneier.com,54.41.80.112,199.65.199.214,26-06-2019 11:22,1920 * 1200,5.0 (Windows),Firefox,Desktop,10.0107,53.5583,Germany,Hamburg,Hamburg,,ee-ip.org,,www.google.com,0,1,0,0,www.ee-ip.org
Inkclub,890-516-7635,http://www.hostlogr.com,169.216.68.185,252.226.27.78,26-06-2019 10:47,1366 * 768,5.0 (Windows NT 6.1; Win64; x64) AppleWebKit/537.,HeadlessChrome/75.0.3770.100 Safari/537.36,Desktop,72.8777,19.076,India,Mumbai,Maharashtra,,ee-ip.org/articles/detailed/34260b0b3988ea8db952bd0136a17120/glass-industry-16-emerging-technologies-for-energy-efficiency-and-ghg-emissions-reduction,,www.google.com,0,1,0,0,www.ee-ip.org/articles/detailed/34260b0b3988ea8db952bd0136a17120/glass-industry-16-emerging-technologies-for-energy-efficiency-and-ghg-emissions-reduction
Payfast,774-333-6738,http://www.lifehack.com,168.60.242.168,215.59.196.135,25-06-2019 17:05,1920 * 1080,5.0 (Windows NT 6.1; WOW64; Trident/7.0; SLCC2; .,Firefox,Desktop,8.6577,50.1171,Germany,Frankfurt Am Main,Darmstadt,,ee-ip.org,,www.bing.com,0,1,1,54,www.ee-ip.org --> www.ee-ip.org/about --> www.ee-ip.org/about --> www.ee-ip.org/about --> www.ee-ip.org/about --> www.ee-ip.org/about --> www.ee-ip.org/partners
Showss,248-351-6866,http://www.taosoft.com,7.194.142.20,160.156.236.120,25-06-2019 12:37,1920 * 1080,5.0 (Windows),Firefox,Desktop,-0.38072,39.47418,Spain,Valencia,Valencia,,ee-ip.org,,www.google.com,0,1,0,0,www.ee-ip.org
Foromtb,724-367-7408,http://www.inkclub.com,243.115.177.23,214.12.211.94,25-06-2019 12:28,1920 * 1080,5.0 (Windows),Firefox,Desktop,-8.61,41.15583,Portugal,Porto,Porto,,ee-ip.org/articles/detailed/628f0f1eee2e8315aa40601b5c379f3c/what-the-energy-efficiency-community-can-learn-from-the-club-of-rome,,www.ee-ip.org,0,0,0,1390,www.ee-ip.org/articles/detailed/628f0f1eee2e8315aa40601b5c379f3c/what-the-energy-efficiency-community-can-learn-from-the-club-of-rome --> www.ee-ip.org/articles --> www.ee-ip.org/nc/business-practices --> www.ee-ip.org/articles/detailed/118b6fd8f841b469f817b35dbc32c344/more-than-ronaldo-how-5-innovative-portuguese-companies-drive-energy-efficiency --> www.www2.ee-ip.org/content/CompanyPage/show/solvera-lynx/file/401_Energy_Management_System_in_cement_industry --> www.ee-ip.org/about
Broward,578-917-9349,http://www.digiday.com,214.123.200.202,146.109.34.129,25-06-2019 09:36,1920 * 1080,5.0 (Windows NT 10.0; Win64; x64) AppleWebKit/537,HeadlessChrome/75.0.3770.100 Safari/537.36,Desktop,4.75789,50.43502,Belgium,Floreffe,Namur,,ee-ip.org/services,,incubators.brussels,0,0,0,4,www.ee-ip.org/services --> www.ee-ip.org/about
Speedtv,638-877-9962,http://www.speedtv.com,243.100.181.40,106.244.149.180,25-06-2019 09:05,1680 * 1050,5.0 (Windows NT 6.1; Win64; x64) AppleWebKit/537.,HeadlessChrome/75.0.3770.100 Safari/537.36,Desktop,12.3063,41.7755,Italy,Roma,Roma,,ee-ip.org/articles/detailed/fa42c6cf40438e1f6c04feda8bbf3984/green-aviation,,www.google.com,0,1,0,0,www.ee-ip.org/articles/detailed/fa42c6cf40438e1f6c04feda8bbf3984/green-aviation
Bstatic,637-848-6465,http://www.payfast.com,88.227.67.130,91.101.170.149,24-06-2019 22:38,1920 * 1080,5.0 (Windows NT 10.0; Win64; x64) AppleWebKit/537,Chrome/70.0.3538.102 Safari/537.36,Desktop,-93.41123,44.91346,United States,Hopkins,Minnesota,,ee-ip.org/articles/detailed/fa42c6cf40438e1f6c04feda8bbf3984/green-aviation,,www.google.com,0,1,0,0,www.ee-ip.org/articles/detailed/fa42c6cf40438e1f6c04feda8bbf3984/green-aviation
Ruoshui,806-252-7958,http://www.showss.com,39.101.112.76,207.101.172.183,24-06-2019 18:54,1366 * 768,5.0 (Macintosh; Intel Mac OS X 10_14_5) AppleWebK,Mobile/16C50 Version/12.1.1 Safari/605.1.15 (AirWatch Browser v7.3.1,Mac,0,51.51222,United Kingdom,London,Greater London,"Aldgate Tower 7th Floor, 2 Leman Street, London, England, E1 8FA",ee-ip.org,,,0,0,0,0,www.ee-ip.org
Chintai,515-927-4754,http://www.foromtb.com,33.89.156.35,67.170.150.128,24-06-2019 18:32,1920 * 1080,5.0 (Windows NT 10.0; WOW64) AppleWebKit/537.36 (,Chrome/74.0.3729.169 Safari/537.36,Desktop,-123.36897,48.45322,Canada,Victoria,British Columbia,,www2.ee-ip.org/content/CompanyPage/show/yourenergy/file/305_Case_Study_of_Kermanshah_Petrochemical_Industries_Co_,,www.google.com,0,1,0,0,www.www2.ee-ip.org/content/CompanyPage/show/yourenergy/file/305_Case_Study_of_Kermanshah_Petrochemical_Industries_Co_
Bravotv,761-377-3821,http://www.broward.com,179.87.175.202,81.203.236.187,24-06-2019 18:07,1920 * 1080,5.0 (Windows NT 10.0; Win64; x64) AppleWebKit/537,HeadlessChrome/75.0.3770.100 Safari/537.36,Desktop,5.18666,50.81546,Belgium,Sint-Truiden,Limburg,,ee-ip.org,,,0,0,0,299,www.ee-ip.org --> www.ee-ip.org --> www.ee-ip.org/events --> www.ee-ip.org/articles --> www.ee-ip.org/about --> www.ee-ip.org
Hongsam,854-194-6317,http://www.bstatic.com,107.83.170.132,110.132.215.140,24-06-2019 17:15,1920 * 1080,5.0 (Macintosh; Intel Mac OS X 10_12_6) AppleWebK,Mobile/16C50 Version/12.1.1 Safari/605.1.15 (AirWatch Browser v7.3.1,Mac,12.58783,55.68051,Denmark,Kobenhavn,Hovedstaden,,ee-ip.org/magazine,,www.google.com,0,1,0,0,www.ee-ip.org/magazine
Anunico,317-042-0051,http://www.linkmela.com,163.237.40.1,255.231.2.223,24-06-2019 17:13,1920 * 1080,5.0 (Windows NT 10.0; WOW64; Trident/7.0; .NET4.0,Firefox,Desktop,6.10624,49.61624,Luxembourg,Luxembourg,Luxembourg,,ee-ip.org/articles/detailed/999325585c33f81f2b421390498a8124/energy-audit-in-smes-could-unlock-great-energy-efficiency-potential-in-europe-a-focus-on-the-italia,,www.google.com,0,1,0,0,www.ee-ip.org/articles/detailed/999325585c33f81f2b421390498a8124/energy-audit-in-smes-could-unlock-great-energy-efficiency-potential-in-europe-a-focus-on-the-italia
Loadbr,310-746-7983,http://www.ruoshui.com,186.108.100.240,188.102.56.27,24-06-2019 15:42,1920 * 1080,5.0 (Windows NT 6.1; WOW64; Trident/7.0; SLCC2; .,Firefox,Desktop,-85.991942,39.963851,United States,Fishers,Hamilton County,,ee-ip.org/articles/detailed/c4a9bce1728be9d76641b9b9f01530fa/farewell-to-traditional-compressor-based-refrigeration,,www.google.com,0,1,1,0,www.ee-ip.org/articles/detailed/c4a9bce1728be9d76641b9b9f01530fa/farewell-to-traditional-compressor-based-refrigeration
Checkoo,724-367-7408,http://www.chintai.com,226.230.32.167,247.229.102.114,24-06-2019 15:09,1920 * 1200,5.0 (Windows NT 10.0; Win64; x64) AppleWebKit/537,HeadlessChrome/75.0.3770.100 Safari/537.36,Desktop,12.4949,55.7635,Denmark,Kongens Lyngby,Hovedstaden,,ee-ip.org/articles/detailed/4f4b42dca867849009fa2064b0b91c78/utilities-large-missed-opportunity-demand-response-in-manufacturing,,www.google.dk,0,1,0,0,www.ee-ip.org/articles/detailed/4f4b42dca867849009fa2064b0b91c78/utilities-large-missed-opportunity-demand-response-in-manufacturing
Kickette,725-344-2435,http://www.bravotv.com,114.234.110.26,111.182.187.175,24-06-2019 12:24,1920 * 1080,5.0 (Windows NT 6.1; WOW64; Trident/7.0; SLCC2; .,Firefox,Desktop,14.02462,48.15665,Austria,Wels,Oberoesterreich,,ee-ip.org/articles/detailed/bd3568515e538ad350faf063915c6141/heatpumps-vision-vs-reality,,,0,0,0,0,www.ee-ip.org/articles/detailed/bd3568515e538ad350faf063915c6141/heatpumps-vision-vs-reality
Dayjob,383-030-7765,http://www.hongsam.com,57.250.200.155,150.90.11.96,24-06-2019 10:41,1920 * 1200,5.0 (Windows NT 10.0; Win64; x64) AppleWebKit/537,Chrome/74.0.3729.169 Safari/537.36,Desktop,100.45,13.81,Thailand,Bang Kruai,Nonthaburi,,ee-ip.org/articles/detailed/7a63d03adb027ab72323daa86bdbd98d/electric-vehicles-heat-pumps-electric-motors-play-a-crucial-role-in-the-energy-transition,,www.google.com,0,1,0,0,www.ee-ip.org/articles/detailed/7a63d03adb027ab72323daa86bdbd98d/electric-vehicles-heat-pumps-electric-motors-play-a-crucial-role-in-the-energy-transition
Epicfail,951-803-4390,http://www.loadbr.com,168.167.205.185,6.114.124.142,24-06-2019 09:40,2327 * 1309,5.0 (Windows NT 10.0; Win64; x64) AppleWebKit/537,Chrome/64.0.3282.140 Safari/537.36 Edge/17.17134,Desktop,8.7995,55.4728,Denmark,Gording,Syddanmark,,ee-ip.org/articles/detailed/597c40b4f191d141b0905cff80768f39/is-an-energy-revolution-underway-in-chile,,www.google.com,0,1,0,0,www.ee-ip.org/articles/detailed/597c40b4f191d141b0905cff80768f39/is-an-energy-revolution-underway-in-chile
Highbeam,420-056-1982,http://www.checkoo.com,39.4.61.226,171.23.100.45,24-06-2019 06:40,1366 * 768,5.0 (Windows NT 10.0; Win64; x64) AppleWebKit/537,HeadlessChrome/75.0.3770.100 Safari/537.36,Desktop,78.4867,17.385,India,Hyderabad,Telangana,,www2.ee-ip.org/content/CompanyPage/show/pepite-sa/file/155_Case_study_cement_industry:_increased_fuel_efficiency,,www.google.co.in,0,1,0,0,www.www2.ee-ip.org/content/CompanyPage/show/pepite-sa/file/155_Case_study_cement_industry:_increased_fuel_efficiency
Kunyue,724-367-7408,,175.161.89.19,163.236.135.240,23-06-2019 12:35,1600 * 800,5.0 (Windows NT 10.0; Win64; x64) AppleWebKit/537,Chrome/65.0.3391.146 Safari/537.36 OPR/55.0.3452.46,Desktop,-87.99496,42.01187,United States,Elk Grove Village,Illinois,,ee-ip.org/events,,,0,0,0,0,www.ee-ip.org/events
Sandaha,757-074-7870,http://www.kickette.com,149.44.196.225,86.204.111.206,22-06-2019 00:42,1366 * 768,5.0 (Windows),Firefox,Desktop,-122.17309,47.62007,United States,Bellevue,Washington,,ee-ip.org/articles/detailed/e3856df40e2342fa6e02d4d5d9e11afe/utilize-all-the-available-energy-heat-recovery,,www.google.com,0,1,0,18,www.ee-ip.org/articles/detailed/e3856df40e2342fa6e02d4d5d9e11afe/utilize-all-the-available-energy-heat-recovery --> www.ee-ip.org/partners --> www.ee-ip.org
Anawenti,733-097-7105,http://www.dayjob.com,9.35.101.182,225.150.203.81,21-06-2019 16:45,1920 * 1080,5.0 (Windows NT 10.0; WOW64) AppleWebKit/537.36 (,HeadlessChrome/75.0.3770.100 Safari/537.36,Desktop,8.05024,45.00109,Italy,Viale,Asti,,ee-ip.org/articles/detailed/1f94823dd90fe3a2b15e3b8f992c2d96/local-energy-aggregation-similarities-between-the-italian-hera-group-and-the-community-choice-energ,,www.google.com,0,1,0,0,www.ee-ip.org/articles/detailed/1f94823dd90fe3a2b15e3b8f992c2d96/local-energy-aggregation-similarities-between-the-italian-hera-group-and-the-community-choice-energ
Foromtb,724-367-7408,http://www.inkclub.com,243.115.177.23,214.12.211.94,21-06-2019 15:05,1920 * 1080,5.0 (Windows),Firefox,Desktop,-8.61,41.15583,Portugal,Porto,Porto,,ee-ip.org/about,,www.google.com,0,1,0,20,www.ee-ip.org/about --> www.ee-ip.org --> www.ee-ip.org/articles/detailed/628f0f1eee2e8315aa40601b5c379f3c/what-the-energy-efficiency-community-can-learn-from-the-club-of-rome
Ruoshui,806-252-7958,http://www.showss.com,39.101.112.76,207.101.172.183,21-06-2019 14:13,1366 * 768,5.0 (Macintosh; Intel Mac OS X 10_14_5) AppleWebK,Mobile/16C50 Version/12.1.1 Safari/605.1.15 (AirWatch Browser v7.3.1,Mac,0,51.51222,United Kingdom,London,Greater London,"Aldgate Tower 7th Floor, 2 Leman Street, London, England, E1 8FA",ee-ip.org,,,0,0,0,1998,www.ee-ip.org --> www.ee-ip.org
Nafnaf,724-367-7408,,206.183.114.219,131.193.84.235,21-06-2019 14:08,1920 * 1080,5.0 (Windows),Firefox,Desktop,6.13993,46.20382,Switzerland,Geneve,Geneve,,ee-ip.org/articles/detailed/7cc969ab93f80c76a54ecc339c544ae9/turkey-industrial-energy-efficiency-strategy,,www.google.com,0,1,0,0,www.ee-ip.org/articles/detailed/7cc969ab93f80c76a54ecc339c544ae9/turkey-industrial-energy-efficiency-strategy
Syosetu,202-688-4958,http://www.epicfail.com,136.230.58.81,102.249.136.124,21-06-2019 12:44,1920 * 1080,5.0 (Windows),Firefox,Desktop,13.388,52.5155,Germany,Berlin-Mitte,Berlin,,ee-ip.org,,www.ecosia.org,0,0,0,13,www.ee-ip.org --> www.ee-ip.org/articles/detailed/628f0f1eee2e8315aa40601b5c379f3c/what-the-energy-efficiency-community-can-learn-from-the-club-of-rome
Germany,372-203-8659,http://www.highbeam.com,233.138.141.157,147.193.156.112,21-06-2019 09:06,1366 * 768,"5.0 (Windows NT 6.1) AppleWebKit/537.36 (KHTML, l",Chrome/68.0.3440.106 Safari/537.36 PTST/180813.150843,Desktop,84.78031,19.11401,India,Nuralrevu,Odisha,,ee-ip.org/articles/detailed/feb76d3e75da0b5aa4f06920ecdfbb1b/iot-equipped-led-lighting-systems-enhance-energy-efficiency,,www.google.com,0,1,0,5314,www.ee-ip.org/articles/detailed/feb76d3e75da0b5aa4f06920ecdfbb1b/iot-equipped-led-lighting-systems-enhance-energy-efficiency --> www.ee-ip.org/articles/detailed/feb76d3e75da0b5aa4f06920ecdfbb1b/iot-equipped-led-lighting-systems-enhance-energy-efficiency
Datanta,761-630-2034,http://www.kunyue.com,44.5.37.3,5.249.172.14,20-06-2019 20:29,1600 * 900,5.0 (Windows NT 10.0; Win64; x64) AppleWebKit/537,Chrome/73.0.3683.75 Safari/537.36,Desktop,-104.79278,40.39282,United States,Greeley,Colorado,,ee-ip.org/articles/detailed/1e5b82080686ae02120cc4a9400ac380/the-4th-utility-compressed-air,,www.google.com,0,1,0,0,www.ee-ip.org/articles/detailed/1e5b82080686ae02120cc4a9400ac380/the-4th-utility-compressed-air
Autogeek,336-555-0516,http://www.sandaha.com,113.235.244.167,47.79.111.41,20-06-2019 18:39,1280 * 720,5.0 (Windows NT 10.0; Win64; x64) AppleWebKit/537,Chrome/74.0.3729.169 Safari/537.36,Desktop,-73.97902,40.75891,United States,New York,New York,,ee-ip.org/articles/detailed/4f4b42dca867849009fa2064b0b91c78/utilities-large-missed-opportunity-demand-response-in-manufacturing,,www.google.com,0,1,0,0,www.ee-ip.org/articles/detailed/4f4b42dca867849009fa2064b0b91c78/utilities-large-missed-opportunity-demand-response-in-manufacturing
Ajnews,931-880-6455,http://www.anawenti.com,124.193.187.82,249.97.75.182,20-06-2019 15:35,412 * 892,5.0 (Linux; Android 9; ONEPLUS A6013) AppleWebKit,Version/4.0 Chrome/75.0.3770.89 Mobile Safari/537.36 Instagram 97.0.0.32.119 Android (28/9; 420dpi; 1080x1794; Google/google; Pixel 2; walleye; walleye; en_US; 158441917,Mobile,6.10624,49.61624,Luxembourg,Luxembourg,Luxembourg,,ee-ip.org,,www.google.com,0,1,0,79,www.ee-ip.org --> www.ee-ip.org/about --> www.ee-ip.org/partners --> www.ee-ip.org/about --> www.ee-ip.org
Choyduoc,301-874-4083,http://www.nafnaf.com,255.210.232.197,133.174.199.234,20-06-2019 12:23,1680 * 1050,5.0 (Windows NT 10.0; Win64; x64) AppleWebKit/537,HeadlessChrome/75.0.3770.100 Safari/537.36,Desktop,20.38654,64.86294,Sweden,Boliden,Vasterbottens Lan,,ee-ip.org/articles/detailed/8fd9a854a34a274a25827f6380b8dd60/whats-next-for-industrial-energy-efficiency,,www.google.com,0,1,0,0,www.ee-ip.org/articles/detailed/8fd9a854a34a274a25827f6380b8dd60/whats-next-for-industrial-energy-efficiency
Duobei,441-146-8163,http://www.syosetu.com,84.137.154.49,71.242.96.225,20-06-2019 08:20,1366 * 768,5.0 (Windows NT 10.0; Win64; x64) AppleWebKit/537,Chrome/74.0.3729.169 Safari/537.36,Desktop,103.8198,1.32,Singapore,Singapore,None,,ee-ip.org/articles/detailed/34797d22b9f922980cdcc13e3cd53771/21st-century-energy-management,,www.google.com,0,1,0,0,www.ee-ip.org/articles/detailed/34797d22b9f922980cdcc13e3cd53771/21st-century-energy-management
Opensooq,724-367-7408,http://www.germany.com,12.30.62.39,51.218.232.237,19-06-2019 22:15,2560 * 1440,5.0 (Macintosh; Intel Mac OS X 10_13_4) AppleWebK,Chrome/74.0.3729.169 Safari/537.36,Mac,-87.67432,42.05586,United States,Evanston,Illinois,,ee-ip.org/articles/detailed/597c40b4f191d141b0905cff80768f39/is-an-energy-revolution-underway-in-chile,,www.google.com,0,1,0,0,www.ee-ip.org/articles/detailed/597c40b4f191d141b0905cff80768f39/is-an-energy-revolution-underway-in-chile
Martinus,724-367-7408,,209.195.63.22,253.144.230.128,19-06-2019 19:41,1440 * 900,5.0 (Macintosh; Intel Mac OS X 10_13_6) AppleWebK,Chrome/74.0.3729.169 Safari/537.36,Mac,-66.644571,45.9634168,Canada,Fredericton,York County,,ee-ip.org/partners,,www.ee-ip.org,0,0,1,2224,www.ee-ip.org/partners --> www.ee-ip.org --> www.ee-ip.org/services --> www.ee-ip.org/partners --> www.ee-ip.org/about --> www.ee-ip.org --> www.ee-ip.org/about
Ajnews,931-880-6455,http://www.anawenti.com,124.193.187.82,249.97.75.182,19-06-2019 18:23,1280 * 720,5.0 (Windows),Firefox,Desktop,6.10624,49.61624,Luxembourg,Luxembourg,Luxembourg,,ee-ip.org,,,0,0,0,25,www.ee-ip.org --> www.ee-ip.org/about --> www.ee-ip.org/nc/business-practices
Germany,610-078-9744,http://www.datanta.com,21.152.135.93,179.48.218.132,19-06-2019 16:40,1920 * 1080,5.0 (Windows NT 10.0; Win64; x64) AppleWebKit/537,Chrome/64.0.3282.140 Safari/537.36 Edge/17.17134,Desktop,11.5729,48.1362,Germany,Muenchen,Bayern,,ee-ip.org/events/detailed/fcd0540042ad4336d968a1d787228f87/g20-global-summit-on-financing-energy-efficiency-innovation-and-clean-technology,,www.bing.com,0,1,0,0,www.ee-ip.org/events/detailed/fcd0540042ad4336d968a1d787228f87/g20-global-summit-on-financing-energy-efficiency-innovation-and-clean-technology
Ipathram,926-360-9148,http://www.autogeek.com,76.109.31.77,83.239.168.5,19-06-2019 15:30,1920 * 1080,5.0 (Windows NT 6.1; Win64; x64) AppleWebKit/537.,Chrome/73.0.3683.103 Safari/537.36 OPR/60.0.3255.170,Desktop,13.536,52.539,Germany,Marzahn,Berlin,,www2.ee-ip.org/content/CompanyPage/show/norsk-energi/file/107_Energy_Recovery:_Reference_project_Finnfjord,,www.linkedin.com,0,1,0,0,www.www2.ee-ip.org/content/CompanyPage/show/norsk-energi/file/107_Energy_Recovery:_Reference_project_Finnfjord
Sharegj,376-493-2378,http://www.ajnews.com,231.194.143.82,67.56.205.250,19-06-2019 15:16,1440 * 900,5.0 (Macintosh),Firefox,Mac,13.10641,52.39407,Germany,Potsdam,Brandenburg,,ee-ip.org/articles/detailed/628f0f1eee2e8315aa40601b5c379f3c/what-the-energy-efficiency-community-can-learn-from-the-club-of-rome,,,0,0,0,0,www.ee-ip.org/articles/detailed/628f0f1eee2e8315aa40601b5c379f3c/what-the-energy-efficiency-community-can-learn-from-the-club-of-rome
Ajnews,931-880-6455,http://www.anawenti.com,124.193.187.82,249.97.75.182,19-06-2019 14:24,412 * 846,5.0 (Linux; Android 9; SAMSUNG SM-A750FN/A750FNXX,SamsungBrowser/9.2 Chrome/67.0.3396.87 Mobile Safari/537.36,Mobile,6.10624,49.61624,Luxembourg,Luxembourg,Luxembourg,,ee-ip.org/articles/detailed/8c9a196e2fef8fe8433f4dfbca0cee3a/icp-partners-made-it,,,0,0,0,0,www.ee-ip.org/articles/detailed/8c9a196e2fef8fe8433f4dfbca0cee3a/icp-partners-made-it
Khabarpu,724-367-7408,,59.89.50.238,13.240.96.180,19-06-2019 12:00,1366 * 768,5.0 (Macintosh; Intel Mac OS X 10_11_6) AppleWebK,Version/11.1.2 Safari/605.1.15,Mac,11.35203445,44.49735759,Italy,Bologna,CittÃ  Metropolitana Di Bologna,,ee-ip.org/articles/detailed/9b6b4c4efe5d97fd26896c14fd806f21/new-utility-business-model-leverage-customer-base,,www.google.com,0,1,1,251,www.ee-ip.org/articles/detailed/9b6b4c4efe5d97fd26896c14fd806f21/new-utility-business-model-leverage-customer-base --> www.ee-ip.org/articles/detailed/3fbfb84db1e6e10b4c471d07e6f2fe37/heres-how-european-energy-companies-see-the-near-future
Clubhola,229-671-7769,http://www.choyduoc.com,197.249.99.198,240.186.60.43,19-06-2019 11:25,1680 * 1050,5.0 (Windows),Firefox,Desktop,8.597,49.267,Germany,Sankt Leon,Baden-Wuerttemberg,,www2.ee-ip.org/content/CompanyPage/show/turboden-srl/file/96_ORC_Plants_for_Industrial_Heat_Recovery,,,0,0,0,0,www.www2.ee-ip.org/content/CompanyPage/show/turboden-srl/file/96_ORC_Plants_for_Industrial_Heat_Recovery
Doseng,869-871-3537,http://www.duobei.com,212.50.240.103,31.44.202.183,18-06-2019 22:31,1366 * 768,5.0 (Windows NT 6.1; Win64; x64) AppleWebKit/537.,Chrome/74.0.3729.169 Safari/537.36,Desktop,-89.23306,13.77972,El Salvador,San Salvador,San Salvador,,ee-ip.org/articles/detailed/7a63d03adb027ab72323daa86bdbd98d/electric-vehicles-heat-pumps-electric-motors-play-a-crucial-role-in-the-energy-transition,,www.google.com.sv,0,1,0,0,www.ee-ip.org/articles/detailed/7a63d03adb027ab72323daa86bdbd98d/electric-vehicles-heat-pumps-electric-motors-play-a-crucial-role-in-the-energy-transition
Itmedia,876-584-2882,http://www.opensooq.com,31.193.247.209,179.128.48.63,18-06-2019 16:00,1280 * 720,5.0 (Windows NT 10.0; Win64; x64) AppleWebKit/537,Chrome/74.0.3729.169 Safari/537.36,Desktop,21.01967,52.2239,Poland,Warszawa,Mazowieckie,,ee-ip.org/articles/detailed/7613a0866ce8b0521f89a3afac2c860d/what-the-eu-winter-package-means-for-industry,,www.google.com,0,1,0,0,www.ee-ip.org/articles/detailed/7613a0866ce8b0521f89a3afac2c860d/what-the-eu-winter-package-means-for-industry
Liassist,724-367-7408,http://www.martinus.com,33.211.36.46,206.116.81.79,18-06-2019 14:16,1920 * 1080,5.0 (Windows NT 6.1; Win64; x64) AppleWebKit/537.,Chrome/74.0.3729.169 Safari/537.36,Desktop,-1.4303757,53.2416759,United Kingdom,Chesterfield,Derbyshire,,ee-ip.org/articles/detailed/fc2366a289df3f830da0810bf9fb3f91/optimizing-electrical-motor-efficiency-get-more-bang-for-your-buck,,www.google.co.uk,0,1,1,0,www.ee-ip.org/articles/detailed/fc2366a289df3f830da0810bf9fb3f91/optimizing-electrical-motor-efficiency-get-more-bang-for-your-buck
Duigan,562-943-1689,http://www.germany.com,239.38.219.178,102.254.86.168,18-06-2019 13:46,800 * 600,5.0 (X11; Linux x86_64) AppleWebKit/537.36 (KHTML,HeadlessChrome/70.0.3538.77 Safari/537.36,Desktop,-87.82326,42.08015,United States,Glenview,Illinois,,ee-ip.org,,,0,0,0,113,www.ee-ip.org --> www.www2.ee-ip.org/content/CompanyPage/show/european-copper-institute/file/325_10_Facts_about_Energy_Management --> www.ee-ip.org/nc/business-practices --> www.ee-ip.org/services --> www.www2.ee-ip.org/content/CompanyPage/show/swep-international/file/439_ORC-systems_are_helping_to_create_a_sustainable_energy_future --> www.www2.ee-ip.org/contentmailing --> www.www2.ee-ip.org/content/CompanyPage/show/european-copper-institute/file/296_Behind-the-Meter_Energy_Storage_Systems --> www.www2.ee-ip.org/content/CompanyPage/show/swep-international/file/435_Shining_a_light_on_Tomatoes --> www.ee-ip.org/articles --> www.ee-ip.org/events --> www.ee-ip.org/articles/detailed/5744e330c75634733f10ed7a0b23a649/simply-not-enough --> www.ee-ip.org/events/detailed/ce442cf8460d8d2bd1ae6035141f878e/eu-sustainable-energy-week-2019 --> www.ee-ip.org/newsletter --> www.ee-ip.org/legal-notices --> www.ee-ip.org/articles/detailed/118b6fd8f841b469f817b35dbc32c344/more-than-ronaldo-how-5-innovative-portuguese-companies-drive-energy-efficiency --> www.ee-ip.org/about --> www.ee-ip.org/privacy --> www.ee-ip.org/articles/detailed/766fbf5ef63d886ae86f52d0bb7dd2ab/message-to-the-investor-community-be-that-bridge-over-troubled-water --> www.ee-ip.org/articles/detailed/add4074d8ed903b257db63c17278173a/risk-minimization-for-energy-efficiency-projects --> www.ee-ip.org/events/detailed/b8f8c19e99297b0582f99a931018720a/investor-days-workshop-in-london-the-11th-of-september-2018 --> www.ee-ip.org/articles/detailed/c0074da70f54337de17e9c0fa27bbcde/youve-got-a-friend
Ipathram,926-360-9148,http://www.autogeek.com,76.109.31.77,83.239.168.5,18-06-2019 11:18,1920 * 1080,5.0 (Windows NT 6.1; Win64; x64) AppleWebKit/537.,Chrome/73.0.3683.103 Safari/537.36 OPR/60.0.3255.170,Desktop,13.536,52.539,Germany,Marzahn,Berlin,,www2.ee-ip.org/content/CompanyPage/show/norsk-energi/file/101_Energy_Management_-_Step_by_Step,,,0,0,0,0,www.www2.ee-ip.org/content/CompanyPage/show/norsk-energi/file/101_Energy_Management_-_Step_by_Step
Newsky,983-768-0461,http://www.ipathram.com,204.40.125.66,209.252.197.25,18-06-2019 11:18,1920 * 1080,5.0 (Windows NT 10.0; Win64; x64) AppleWebKit/537,Chrome/64.0.3282.140 Safari/537.36 Edge/17.17134,Desktop,9.1818,48.7754,Germany,Stuttgart,Baden-Wuerttemberg,,ee-ip.org/articles/detailed/df337947f1ec90e3b8c0a43af4fcf2fa/top-3-articles-in-energy-efficiency-fom-the-2nd-quarter-of-2018,,,0,0,0,0,www.ee-ip.org/articles/detailed/df337947f1ec90e3b8c0a43af4fcf2fa/top-3-articles-in-energy-efficiency-fom-the-2nd-quarter-of-2018
Sonetel,202-157-0941,http://www.sharegj.com,184.184.62.187,90.231.19.165,18-06-2019 10:51,1280 * 720,5.0 (Windows NT 10.0; Win64; x64) AppleWebKit/537,Chrome/74.0.3729.169 Safari/537.36,Desktop,2.34107,48.86023,France,Paris,Paris,,ee-ip.org/articles/detailed/6640bb0e4577f612ae97c07ac211429f/does-vr-work-for-energy-efficiency-markets-a-review-of-the-vr-presentation-of-the-investor-confiden,,www.google.com,0,1,0,0,www.ee-ip.org/articles/detailed/6640bb0e4577f612ae97c07ac211429f/does-vr-work-for-energy-efficiency-markets-a-review-of-the-vr-presentation-of-the-investor-confiden
Inzercia,374-280-5488,http://www.khabarpu.com,235.242.67.29,152.159.113.4,18-06-2019 10:41,1920 * 1080,5.0 (Windows NT 10.0; Win64; x64) AppleWebKit/537,Chrome/75.0.3770.90 Safari/537.36,Desktop,30.31579,59.93904,Russian Federation,Sankt-Peterburg,Sankt-Peterburg,,ee-ip.org/articles/detailed/b97292b5e1a44315e76ff3c246b183f1/digital-transformation-of-energy-utilities-shifting-gears,,www.google.ru,0,1,0,0,www.ee-ip.org/articles/detailed/b97292b5e1a44315e76ff3c246b183f1/digital-transformation-of-energy-utilities-shifting-gears
Myunplug,940-608-0734,http://www.clubhola.com,105.179.63.179,83.151.219.98,18-06-2019 09:55,1280 * 720,5.0 (Windows NT 10.0; Win64; x64) AppleWebKit/537,Chrome/74.0.3729.169 Safari/537.36,Desktop,16.37417,48.20861,Austria,Wien,Wien,,ee-ip.org/articles/detailed/e2c73f35562b71f56c9b3a5a03782ef8/cleantech-startups-german-utilities-bridging-the-valley-of-death,,www.google.com,0,1,0,0,www.ee-ip.org/articles/detailed/e2c73f35562b71f56c9b3a5a03782ef8/cleantech-startups-german-utilities-bridging-the-valley-of-death
Hirado,535-267-6174,http://www.doseng.com,54.119.90.185,35.131.56.112,18-06-2019 09:47,1920 * 1080,5.0 (Windows NT 10.0; WOW64; Trident/7.0; .NET4.0,Firefox,Desktop,14.50597,46.05143,Slovenia,Ljubljana,Ljubljana,,www2.ee-ip.org/content/CompanyPage/show/swep-international/file/433_Rank_Organic_Rankine_Cycle_Technology_with_applications_in_Heat_Recovery_solution,,,0,0,0,0,www.www2.ee-ip.org/content/CompanyPage/show/swep-international/file/433_Rank_Organic_Rankine_Cycle_Technology_with_applications_in_Heat_Recovery_solution
Fanfou,925-725-7302,http://www.fanfou.com,67.238.76.252,132.181.68.224,18-06-2019 07:28,1680 * 1050,5.0 (Windows NT 10.0; Win64; x64) AppleWebKit/537,Chrome/73.0.3683.103 Safari/537.36 OPR/60.0.3255.151,Desktop,28.23565,61.04668,Finland,Lappeenranta,Etela-Karjala,,ee-ip.org/articles,,www.ee-ip.org,0,0,0,0,www.ee-ip.org/articles
Dropday,210-666-4841,http://www.itmedia.com,126.27.42.160,45.122.37.15,17-06-2019 21:14,1920 * 1080,5.0 (Windows NT 6.1; Win64; x64) AppleWebKit/537.,Chrome/74.0.3729.169 Safari/537.36,Desktop,6.19041,62.4771,Norway,Alesund,More Og Romsdal,,www2.ee-ip.org/content/CompanyPage/show/norsk-energi/file/101_Energy_Management_-_Step_by_Step,,,0,0,0,867,www.www2.ee-ip.org/content/CompanyPage/show/norsk-energi/file/101_Energy_Management_-_Step_by_Step --> www.ee-ip.org/articles --> www.ee-ip.org/articles/detailed/7a63d03adb027ab72323daa86bdbd98d/electric-vehicles-heat-pumps-electric-motors-play-a-crucial-role-in-the-energy-transition --> www.ee-ip.org/about --> www.ee-ip.org/nc/business-practices --> www.ee-ip.org/about --> www.ee-ip.org/services --> www.ee-ip.org/about --> www.ee-ip.org/partners --> www.ee-ip.org/events
Create,613-180-2472,http://www.liassist.com,33.151.106.76,90.228.247.82,17-06-2019 18:03,1920 * 1080,5.0 (Windows NT 10.0; Win64; x64) AppleWebKit/537,Chrome/74.0.3729.169 Safari/537.36,Desktop,1.99794,41.59386,Spain,Terrassa,Barcelona,,ee-ip.org,,www.google.com,0,1,0,30,www.ee-ip.org --> www.ee-ip.org/about --> www.ee-ip.org/articles
Mydeco,228-031-6180,http://www.mydeco.com,235.243.60.203,55.203.160.244,17-06-2019 15:41,1920 * 1080,5.0 (Windows NT 10.0; Win64; x64) AppleWebKit/537,Chrome/74.0.3729.169 Safari/537.36,Desktop,14.50597,46.05143,Slovenia,Ljubljana,Ljubljana,,ee-ip.org/articles/detailed/8c9a196e2fef8fe8433f4dfbca0cee3a/icp-partners-made-it,,www.linkedin.com,0,1,0,0,www.ee-ip.org/articles/detailed/8c9a196e2fef8fe8433f4dfbca0cee3a/icp-partners-made-it
Showss,248-351-6866,http://www.taosoft.com,42.3.156.247,197.89.254.172,17-06-2019 09:01,1920 * 1080,5.0 (Windows),Firefox,Desktop,-0.38072,39.47418,Spain,Valencia,Valencia,,ee-ip.org,,www.google.com,0,1,0,8,www.ee-ip.org --> www.ee-ip.org/about
Alamuae,724-367-7408,http://www.duigan.com,208.123.136.207,88.95.7.64,17-06-2019 07:09,1920 * 1080,5.0 (Windows NT 10.0; Win64; x64) AppleWebKit/537,Chrome/75.0.3770.90 Safari/537.36,Desktop,126.98265,37.561,Korea (South),Seoul,Seoul Teukbyeolsi,,ee-ip.org/articles/detailed/87f4ab4b1d6c3c767a9dcae1e30b0808/the-technical-potential-of-large-and-industrial-heat-pumps,,www.google.co.kr,0,1,0,0,www.ee-ip.org/articles/detailed/87f4ab4b1d6c3c767a9dcae1e30b0808/the-technical-potential-of-large-and-industrial-heat-pumps
Beckett,934-825-7877,http://www.newsky.com,8.111.114.129,58.64.201.71,16-06-2019 17:01,320 * 568,5.0 (iPhone; CPU iPhone OS 12_2 like Mac OS X) Ap,Version/12.1 Mobile/15E148 Safari/604.1,Mobile,135.53157,34.69174,Japan,Chuo-Ku (Osaka),Osaka,,ee-ip.org/events/detailed/fcd0540042ad4336d968a1d787228f87/g20-global-summit-on-financing-energy-efficiency-innovation-and-clean-technology,,www.google.com.au,0,1,0,0,www.ee-ip.org/events/detailed/fcd0540042ad4336d968a1d787228f87/g20-global-summit-on-financing-energy-efficiency-innovation-and-clean-technology
Ljworld,883-852-8108,http://www.sonetel.com,232.105.115.197,135.72.254.146,16-06-2019 14:02,1024 * 768,5.0 (Unknown; Linux x86_64) AppleWebKit/538.1 (KH,PhantomJS/2.1.1 Safari/538.1,Desktop,8.6821,50.1109,Germany,Frankfurt Am Main,Hessen,,www2.ee-ip.org/content/CompanyPage/show/videc-data-engineering-gmbh,,,0,0,0,0,www.www2.ee-ip.org/content/CompanyPage/show/videc-data-engineering-gmbh --> www.ee-ip.org/services --> www.ee-ip.org/services
Blogoak,465-725-7581,http://www.inzercia.com,165.233.59.27,190.88.55.236,16-06-2019 08:04,1024 * 768,5.0 PhantomJS (compatible; Seznam screenshot-gene,Firefox,Desktop,14.49282,50.05128,Czech Republic,Praha,Hlavni Mesto Praha,,ee-ip.org,,,0,0,0,0,www.ee-ip.org
Meinauto,869-568-5621,http://www.myunplug.com,173.158.161.154,98.238.79.249,16-06-2019 03:13,800 * 600,5.0 (X11; Linux x86_64) AppleWebKit/537.36 (KHTML,Chrome/60.0.3112.50 Safari/537.36,Desktop,-77.4742,39.0437,United States,Ashburn,Virginia,,ee-ip.org,,,0,0,0,36,www.ee-ip.org --> www.ee-ip.org/articles/detailed/7a63d03adb027ab72323daa86bdbd98d/electric-vehicles-heat-pumps-electric-motors-play-a-crucial-role-in-the-energy-transition
Hangame,724-367-7408,http://www.hirado.com,223.74.132.64,136.166.151.144,14-06-2019 18:14,1536 * 864,5.0 (Windows NT 10.0; Win64; x64) AppleWebKit/537,Chrome/74.0.3729.169 Safari/537.36,Desktop,4.37178,50.82768,Belgium,Elsene,Brussels,,ee-ip.org,,www.google.com,0,1,0,0,www.ee-ip.org --> www.ee-ip.org
Martinus,724-367-7408,,165.116.27.204,66.98.134.1,14-06-2019 15:58,1440 * 900,5.0 (Macintosh; Intel Mac OS X 10_13_6) AppleWebK,Chrome/74.0.3729.169 Safari/537.36,Mac,-66.69046,45.97844,Canada,Fredericton,New Brunswick,,ee-ip.org/partners,,www.ee-ip.org,0,0,0,0,www.ee-ip.org/partners
Ourgames,629-527-7579,http://www.dropday.com,18.60.140.187,89.131.217.245,14-06-2019 12:14,1920 * 1080,5.0 (Windows NT 6.3; WOW64) AppleWebKit/537.36 (K,Chrome/73.0.3683.86 Safari/537.36 PTST/SpeedCurve/190322.130349,Desktop,-1.914,52.491,United Kingdom,Hockley,Birmingham,"Holmhead Farm, Bucksburn, Aberdeen",www2.ee-ip.org/content/CompanyPage/show/acte-heat-exchanger/file/188_Waste_Heat_Recovery_in_SME_industrial_processes,,www.google.com,0,1,0,0,www.www2.ee-ip.org/content/CompanyPage/show/acte-heat-exchanger/file/188_Waste_Heat_Recovery_in_SME_industrial_processes
Autogeek,336-555-0516,http://www.sandaha.com,95.215.40.17,116.244.48.25,14-06-2019 10:12,1280 * 720,5.0 (Windows NT 10.0; Win64; x64) AppleWebKit/537,Chrome/75.0.3770.80 Safari/537.36,Desktop,-0.19917,51.49556,United Kingdom,Kensington And Chelsea,Greater London,"40 Frith Road, London, England, E11 4EY",ee-ip.org/articles/detailed/d073ae0086e1f703bc62af769c6c7025/36-emerging-technologies-for-energyefficiency-and-ghg-emissions-reduction-in-the-pulp-and-paper-indu,,,0,0,0,0,www.ee-ip.org/articles/detailed/d073ae0086e1f703bc62af769c6c7025/36-emerging-technologies-for-energyefficiency-and-ghg-emissions-reduction-in-the-pulp-and-paper-indu
Tipidcp,361-761-8800,http://www.create.com,75.72.117.206,168.29.4.177,14-06-2019 07:22,1600 * 900,5.0 (Windows NT 6.1; Win64; x64) AppleWebKit/537.,Chrome/75.0.3770.80 Safari/537.36,Desktop,79.8767,6.7991,Sri Lanka,Moratuwa,Kolamba,,ee-ip.org/articles/detailed/1217a4c3836efc7e4ae5bf279b6578d4/aluminum-industry-10-emerging-technologies-for-energy-efficiency-and-ghg-emissions-reduction,,www.google.com,0,1,0,2476,www.ee-ip.org/articles/detailed/1217a4c3836efc7e4ae5bf279b6578d4/aluminum-industry-10-emerging-technologies-for-energy-efficiency-and-ghg-emissions-reduction --> www.ee-ip.org/articles/detailed/d073ae0086e1f703bc62af769c6c7025/36-emerging-technologies-for-energyefficiency-and-ghg-emissions-reduction-in-the-pulp-and-paper-indu
Fanfou,925-725-7302,http://www.fanfou.com,67.238.76.252,132.181.68.224,14-06-2019 06:32,1680 * 1050,5.0 (Windows NT 10.0; Win64; x64) AppleWebKit/537,Chrome/73.0.3683.103 Safari/537.36 OPR/60.0.3255.151,Desktop,28.23565,61.04668,Finland,Lappeenranta,Etela-Karjala,,ee-ip.org/articles,,www.ee-ip.org,0,0,0,0,www.ee-ip.org/articles
Jibjab,934-424-0548,http://www.alamuae.com,163.244.195.134,222.95.24.22,13-06-2019 22:30,360 * 760,5.0 (Linux; Android 9; Mi A2 Lite) AppleWebKit/53,Version/4.0 Chrome/74.0.3729.157 Mobile Safari/537.36 [FB_IAB/FB4A;FBAV/220.0.0.46.112;],Mobile,6.64127,46.5981,Switzerland,Bretigny-Sur-Morrens,Vaud,,ee-ip.org,,,0,0,0,0,www.ee-ip.org
Showss,248-351-6866,http://www.taosoft.com,25.240.72.103,154.122.162.134,13-06-2019 18:24,1280 * 1024,5.0 (Windows),Firefox,Desktop,-0.38072,39.47418,Spain,Valencia,Valencia,,ee-ip.org,,,0,0,0,924,www.ee-ip.org --> www.ee-ip.org --> www.ee-ip.org/about --> www.ee-ip.org/articles --> www.ee-ip.org/services
Ebuyer,724-367-7408,http://www.beckett.com,181.200.71.237,205.96.235.206,13-06-2019 15:10,1536 * 864,5.0 (Windows NT 6.1; Win64; x64) AppleWebKit/537.,Chrome/70.0.3538.77 Safari/537.36 PTST/181031.191047,Desktop,126.83041,37.31929,Korea (South),Ansan,Gyeonggi-Do,,ee-ip.org/articles,,www.ee-ip.org,0,0,0,30,www.ee-ip.org/articles --> www.ee-ip.org/nc/business-practices
Hostway,887-544-8550,http://www.ljworld.com,109.128.189.180,29.249.219.72,13-06-2019 14:30,1680 * 1050,5.0 (Windows NT 6.1; WOW64; Trident/7.0; SLCC2; .,Firefox,Desktop,6.10624,49.61624,Luxembourg,Luxembourg,Luxembourg,,ee-ip.org,,,0,0,0,0,www.ee-ip.org
Pubcon,649-402-0685,http://www.blogoak.com,235.45.197.82,95.83.13.67,13-06-2019 13:05,1280 * 720,5.0 (Windows NT 10.0; Win64; x64) AppleWebKit/537,Chrome/74.0.3729.169 Safari/537.36,Desktop,9.8407,55.8605,Denmark,Horsens,Midtjylland,,ee-ip.org,,dk.search.yahoo.com,0,1,0,88,www.ee-ip.org --> www.ee-ip.org/about --> www.ee-ip.org/about --> www.ee-ip.org/partners --> www.ee-ip.org/services --> www.ee-ip.org/about --> www.ee-ip.org/nc/business-practices
Speedtv,638-877-9962,http://www.speedtv.com,243.100.181.40,106.244.149.180,13-06-2019 12:13,1600 * 900,5.0 (Windows NT 6.1; Win64; x64) AppleWebKit/537.,Chrome/75.0.3770.80 Safari/537.36,Desktop,12.3063,41.7755,Italy,Roma,Roma,,ee-ip.org/articles/detailed/fa42c6cf40438e1f6c04feda8bbf3984/green-aviation,,www.google.com,0,1,0,0,www.ee-ip.org/articles/detailed/fa42c6cf40438e1f6c04feda8bbf3984/green-aviation
Ryushare,724-367-7408,http://www.meinauto.com,14.115.205.128,35.93.121.163,13-06-2019 10:10,1536 * 864,5.0 (Windows NT 10.0; Win64; x64) AppleWebKit/537,Chrome/74.0.3729.169 Safari/537.36,Desktop,132.45816,34.41523,Japan,Hiroshima-Shi,Hiroshima,,ee-ip.org/articles/detailed/219bd012d74c75756eb8340db1aa8b40/5-steps-for-a-robust-energy-strategy,,www.google.com,0,1,0,0,www.ee-ip.org/articles/detailed/219bd012d74c75756eb8340db1aa8b40/5-steps-for-a-robust-energy-strategy
Gogogy,984-321-2525,http://www.hangame.com,254.110.233.128,117.206.239.242,13-06-2019 09:34,1366 * 768,5.0 (Windows NT 10.0; Win64; x64) AppleWebKit/537,Chrome/75.0.3770.80 Safari/537.36,Desktop,77.225,28.6353,India,Delhi,Delhi,,ee-ip.org/articles/detailed/7cc969ab93f80c76a54ecc339c544ae9/turkey-industrial-energy-efficiency-strategy,,www.google.com,0,1,0,311,www.ee-ip.org/articles/detailed/7cc969ab93f80c76a54ecc339c544ae9/turkey-industrial-energy-efficiency-strategy --> www.ee-ip.org/about
Shakinit,724-367-7408,http://www.ourgames.com,187.158.214.80,67.126.177.237,13-06-2019 08:43,1366 * 768,5.0 (Windows NT 10.0; Win64; x64) AppleWebKit/537,Chrome/75.0.3770.80 Safari/537.36,Desktop,74.022,17.694,India,Satara,Maharashtra,,ee-ip.org/articles/detailed/bd3568515e538ad350faf063915c6141/heatpumps-vision-vs-reality,,www.google.com,0,1,0,0,www.ee-ip.org/articles/detailed/bd3568515e538ad350faf063915c6141/heatpumps-vision-vs-reality
Fanfou,925-725-7302,http://www.fanfou.com,67.238.76.252,132.181.68.224,13-06-2019 07:54,1680 * 1050,5.0 (Windows NT 10.0; Win64; x64) AppleWebKit/537,Chrome/73.0.3683.103 Safari/537.36 OPR/60.0.3255.95,Desktop,28.23565,61.04668,Finland,Lappeenranta,Etela-Karjala,,ee-ip.org/articles,,www.ee-ip.org,0,0,0,0,www.ee-ip.org/articles
Martinus,724-367-7408,,165.116.27.204,66.98.134.1,12-06-2019 21:34,1440 * 900,5.0 (Macintosh; Intel Mac OS X 10_13_6) AppleWebK,Chrome/74.0.3729.169 Safari/537.36,Mac,-66.69046,45.97844,Canada,Fredericton,New Brunswick,,ee-ip.org,,,0,0,0,6,www.ee-ip.org --> www.ee-ip.org/partners --> www.ee-ip.org/partners
Hangame,724-367-7408,http://www.hirado.com,141.115.12.42,207.91.23.4,12-06-2019 14:42,455 * 960,5.0 (Linux; Android 9; ONEPLUS A6000) AppleWebKit,Chrome/75.0.3770.67 Mobile Safari/537.36,Mobile,4.37178,50.82768,Belgium,Elsene,Brussels,,ee-ip.org,,www.google.com,0,1,0,143,www.ee-ip.org --> www.ee-ip.org/about --> www.ee-ip.org/the-network
Hongsam,721-329-2836,http://www.tipidcp.com,252.81.17.193,144.233.214.77,12-06-2019 13:56,1366 * 768,5.0 (Windows),Firefox,Desktop,-42.35321,-22.86936,Brazil,Rio De Janeiro,Rio De Janeiro,,ee-ip.org/articles/detailed/d1bb2647d9044a7fb75ba2eab1eb3312/why-do-you-need-energy-storage-monitoring,,www.google.com.br,0,1,0,0,www.ee-ip.org/articles/detailed/d1bb2647d9044a7fb75ba2eab1eb3312/why-do-you-need-energy-storage-monitoring
Traffic,262-764-5464,http://www.jibjab.com,77.183.108.62,110.11.249.69,12-06-2019 11:59,1280 * 800,5.0 (Macintosh; Intel Mac OS X 10_14_5) AppleWebK,Mobile/16C50 Version/12.1.1 Safari/605.1.15 (AirWatch Browser v7.3.1,Mac,12.26989,42.09264,Italy,Anguillara Sabazia,Roma,,ee-ip.org,,duckduckgo.com,0,0,0,66,www.ee-ip.org --> www.ee-ip.org/about --> www.ee-ip.org/the-network --> www.ee-ip.org/partners
Sparkfun,416-668-0032,http://www.ebuyer.com,54.83.232.127,7.116.68.140,12-06-2019 11:32,1920 * 1080,5.0 (Windows NT 10.0; WOW64) AppleWebKit/537.36 (,Chrome/74.0.3729.169 Safari/537.36,Desktop,12.8977,50.8574,Germany,Chemnitz,Sachsen,,www2.ee-ip.org/content/CompanyPage/show/wattline-gmbh/file/257_Stromkosten_sparen_durch_Netzentgeltoptimierung,,www.google.com,0,1,0,62,www.www2.ee-ip.org/content/CompanyPage/show/wattline-gmbh/file/257_Stromkosten_sparen_durch_Netzentgeltoptimierung --> www.www2.ee-ip.org/content/CompanyPage/show/wattline-gmbh/file/257_Stromkosten_sparen_durch_Netzentgeltoptimierung
Blokube,585-743-3529,http://www.hostway.com,64.9.4.245,145.152.164.102,12-06-2019 09:44,1536 * 864,5.0 (Windows NT 10.0; Win64; x64) AppleWebKit/537,Chrome/64.0.3282.140 Safari/537.36 Edge/17.17134,Desktop,121.47021,31.22847,China,Shanghai,Shanghai Shi,,ee-ip.org,,cn.bing.com,0,1,0,0,www.ee-ip.org
Arabsh,724-367-7408,http://www.pubcon.com,69.129.41.235,123.110.82.176,12-06-2019 04:04,1280 * 720,5.0 (Windows NT 10.0; Win64; x64) AppleWebKit/537,Chrome/74.0.3729.169 Safari/537.36,Desktop,144.96317,-37.81425,Australia,Melbourne,Victoria,,ee-ip.org/articles/detailed/d73b78e21d506c695cd13546d412686d/the-hidden-benefits-of-solar-powered-energy,,www.google.com.au,0,1,0,783,www.ee-ip.org/articles/detailed/d73b78e21d506c695cd13546d412686d/the-hidden-benefits-of-solar-powered-energy --> www.ee-ip.org/articles/detailed/d73b78e21d506c695cd13546d412686d/the-hidden-benefits-of-solar-powered-energy --> www.ee-ip.org/articles/detailed/d73b78e21d506c695cd13546d412686d/the-hidden-benefits-of-solar-powered-energy
Rekrute,926-831-3932,http://www.ryushare.com,187.26.53.230,99.13.95.230,11-06-2019 22:35,1920 * 1080,5.0 (Windows NT 10.0; WOW64; Trident/7.0; .NET4.0,Firefox,Desktop,-104.94193,39.78491,United States,Denver,Colorado,,ee-ip.org/articles/detailed/e360b8ba312356f89fce2817eb9aa841/choosing-the-best-techniques-for-waste-heat-recovery,,www.bing.com,0,1,0,0,www.ee-ip.org/articles/detailed/e360b8ba312356f89fce2817eb9aa841/choosing-the-best-techniques-for-waste-heat-recovery
Lyrici,724-367-7408,,105.111.221.52,130.235.22.252,11-06-2019 19:15,1366 * 768,5.0 (Windows NT 10.0; Win64; x64) AppleWebKit/537,Chrome/74.0.3729.169 Safari/537.36,Desktop,5.62558,58.95627,Norway,Hafrsfjord,Rogaland,,ee-ip.org,,www.google.com,0,1,0,28,www.ee-ip.org --> www.ee-ip.org/about --> www.ee-ip.org/services
Hangame,724-367-7408,http://www.hirado.com,223.74.132.64,136.166.151.144,11-06-2019 13:10,1536 * 864,5.0 (Windows NT 10.0; Win64; x64) AppleWebKit/537,Chrome/74.0.3729.169 Safari/537.36,Desktop,4.37178,50.82768,Belgium,Elsene,Brussels,,ee-ip.org,,,0,0,0,0,www.ee-ip.org
Showss,248-351-6866,http://www.taosoft.com,3.27.175.254,97.19.1.114,11-06-2019 12:46,1280 * 1024,5.0 (Windows),Firefox,Desktop,-0.38072,39.47418,Spain,Valencia,Valencia,,ee-ip.org,,,0,0,0,3161,www.ee-ip.org --> www.ee-ip.org/about --> www.ee-ip.org/services --> www.ee-ip.org --> www.ee-ip.org
Create,613-180-2472,http://www.liassist.com,33.151.106.76,90.228.247.82,11-06-2019 10:37,1920 * 1080,5.0 (Windows NT 10.0; Win64; x64) AppleWebKit/537,Chrome/74.0.3729.169 Safari/537.36,Desktop,1.99794,41.59386,Spain,Terrassa,Barcelona,,ee-ip.org,,www.google.com,0,1,0,1004,www.ee-ip.org --> www.ee-ip.org/about --> www.ee-ip.org/about --> www.ee-ip.org/services --> www.ee-ip.org/partners --> www.ee-ip.org/about --> www.ee-ip.org
Nwanime,739-591-5388,http://www.gogogy.com,168.144.121.27,112.10.45.89,11-06-2019 08:43,1920 * 1080,5.0 (Windows NT 6.3; Win64; x64) AppleWebKit/537.,Chrome/74.0.3729.169 Safari/537.36,Desktop,23.71999,37.96999,Greece,Athina,Attiki,,ee-ip.org/events/detailed/b8f8c19e99297b0582f99a931018720a/investor-days-workshop-in-london-the-11th-of-september-2018,,www.google.com,0,1,0,0,www.ee-ip.org/events/detailed/b8f8c19e99297b0582f99a931018720a/investor-days-workshop-in-london-the-11th-of-september-2018
Ebuyer,724-367-7408,http://www.beckett.com,181.200.71.237,205.96.235.206,11-06-2019 04:22,1536 * 864,5.0 (Windows NT 6.1; Win64; x64) AppleWebKit/537.,Chrome/70.0.3538.77 Safari/537.36 PTST/181031.191047,Desktop,126.83041,37.31929,Korea (South),Ansan,Gyeonggi-Do,,ee-ip.org/articles/detailed/4f4b42dca867849009fa2064b0b91c78/utilities-large-missed-opportunity-demand-response-in-manufacturing,,www.google.com,0,1,0,0,www.ee-ip.org/articles/detailed/4f4b42dca867849009fa2064b0b91c78/utilities-large-missed-opportunity-demand-response-in-manufacturing
Falevono,349-240-1157,http://www.shakinit.com,111.145.225.114,236.240.216.19,10-06-2019 21:22,360 * 747,5.0 (Linux; Android 9; CLT-L04 Build/HUAWEICLT-L0,Version/4.0 Chrome/74.0.3729.157 Mobile Safari/537.36 OPT/1.17.66,Mobile,2.34107,48.86023,France,Paris,Paris,,www2.ee-ip.org/content/CompanyPage/show/norsk-energi/file/101_Energy_Management_-_Step_by_Step,,,0,0,0,0,www.www2.ee-ip.org/content/CompanyPage/show/norsk-energi/file/101_Energy_Management_-_Step_by_Step
Cbengine,219-437-6720,http://www.hongsam.com,65.175.55.255,227.65.39.130,10-06-2019 19:28,360 * 640,5.0 (Linux; Android 9; Mi A1) AppleWebKit/537.36 ,Version/4.0 Chrome/74.0.3729.157 Mobile Safari/537.36 [FB_IAB/FB4A;FBAV/220.0.0.46.112;],Mobile,30.51667,50.43333,Ukraine,Kyiv,Kyiv Misto,,www2.ee-ip.org/content/CompanyPage/show/norsk-energi/file/101_Energy_Management_-_Step_by_Step,,com.linkedin.android,0,1,0,0,www.www2.ee-ip.org/content/CompanyPage/show/norsk-energi/file/101_Energy_Management_-_Step_by_Step
Autotask,724-367-7408,,59.147.122.205,242.162.61.242,10-06-2019 17:35,1920 * 1080,5.0 (Windows),Firefox,Desktop,12.326,45.431,Italy,Dorsoduro,Venezia,,ee-ip.org/articles/detailed/118b6fd8f841b469f817b35dbc32c344/more-than-ronaldo-how-5-innovative-portuguese-companies-drive-energy-efficiency,,www.google.com,0,1,0,1191,www.ee-ip.org/articles/detailed/118b6fd8f841b469f817b35dbc32c344/more-than-ronaldo-how-5-innovative-portuguese-companies-drive-energy-efficiency --> www.ee-ip.org/articles/detailed/118b6fd8f841b469f817b35dbc32c344/more-than-ronaldo-how-5-innovative-portuguese-companies-drive-energy-efficiency
Bikhir,528-762-1187,http://www.esdlife.com,83.93.239.242,224.135.171.227,10-06-2019 17:29,1680 * 1050,5.0 (Windows),Firefox,Desktop,-1.27556,51.75,United Kingdom,Oxford,Oxfordshire,,ee-ip.org,,,0,0,0,11,www.ee-ip.org --> www.ee-ip.org/nc/business-practices
Gayroyal,974-935-4440,http://www.traffic.com,136.95.146.19,199.104.140.102,10-06-2019 15:59,375 * 667,5.0 (iPhone; CPU iPhone OS 12_2 like Mac OS X) Ap,Mobile/15E148 [LinkedInApp],Mobile,-6.846,33.997,Morocco,Rabat,Rabat-Sale-Kenitra,,www2.ee-ip.org/content/CompanyPage/show/norsk-energi/file/101_Energy_Management_-_Step_by_Step,,,0,0,0,0,www.www2.ee-ip.org/content/CompanyPage/show/norsk-energi/file/101_Energy_Management_-_Step_by_Step --> www.www2.ee-ip.org/content/CompanyPage/show/norsk-energi/file/101_Energy_Management_-_Step_by_Step
Mydeco,228-031-6180,http://www.mydeco.com,235.243.60.203,55.203.160.244,10-06-2019 14:50,1536 * 864,5.0 (Windows NT 10.0; Win64; x64) AppleWebKit/537,Chrome/74.0.3729.169 Safari/537.36,Desktop,14.50597,46.05143,Slovenia,Ljubljana,Ljubljana,,www2.ee-ip.org/content/CompanyPage/show/norsk-energi/file/101_Energy_Management_-_Step_by_Step,,,0,0,0,0,www.www2.ee-ip.org/content/CompanyPage/show/norsk-energi/file/101_Energy_Management_-_Step_by_Step
Ebuyer,585-401-8403,http://www.sparkfun.com,117.55.104.209,154.112.144.113,10-06-2019 10:38,1920 * 1080,5.0 (Windows NT 6.1; Win64; x64) AppleWebKit/537.,"""HeadlessChrome/74.0.3729.108 Safari/537.36 Prerender (+https://github.com/prerender/prerender""",Desktop,-3.68514,40.42618,Spain,Madrid,Madrid,,ee-ip.org/articles/detailed/b97292b5e1a44315e76ff3c246b183f1/digital-transformation-of-energy-utilities-shifting-gears,,www.google.com,0,1,0,0,www.ee-ip.org/articles/detailed/b97292b5e1a44315e76ff3c246b183f1/digital-transformation-of-energy-utilities-shifting-gears
Priceza,229-426-3254,http://www.blokube.com,215.226.162.38,174.245.169.128,09-06-2019 17:17,1280 * 720,5.0 (Windows NT 10.0; Win64; x64) AppleWebKit/537,Chrome/74.0.3729.169 Safari/537.36,Desktop,5.57205,50.64065,Belgium,Liege,Liege,,ee-ip.org,,www.icabrussel.be,0,0,0,0,www.ee-ip.org
Hangame,724-367-7408,http://www.hirado.com,223.74.132.64,136.166.151.144,09-06-2019 15:46,1536 * 864,5.0 (Windows NT 10.0; Win64; x64) AppleWebKit/537,Chrome/74.0.3729.169 Safari/537.36,Desktop,4.37178,50.82768,Belgium,Elsene,Brussels,,ee-ip.org,,www.google.com,0,1,0,0,www.ee-ip.org
Baicai,974-032-8786,http://www.arabsh.com,243.140.92.147,19.179.246.202,09-06-2019 11:42,1366 * 768,5.0 (Windows NT 10.0; Win64; x64; Trident/7.0; .N,Firefox,Desktop,-0.834,51.724,United Kingdom,Princes Risborough,Buckinghamshire,"6  Snow Hill, London, EC1A 2AY",www2.ee-ip.org/content/CompanyPage/show/european-copper-institute/file/235_Asset_and_Energy_Management_-_or_ISO_50001_vs_ISO_55001,,,0,0,0,0,www.www2.ee-ip.org/content/CompanyPage/show/european-copper-institute/file/235_Asset_and_Energy_Management_-_or_ISO_50001_vs_ISO_55001
Milenio,512-004-7699,http://www.rekrute.com,105.48.159.32,58.108.157.173,07-06-2019 17:51,1440 * 900,5.0 (Windows NT 6.1; Win64; x64) AppleWebKit/537.,Chrome/74.0.3729.169 Safari/537.36,Desktop,-73.56201,45.50208,Canada,Montreal,Quebec,,ee-ip.org/articles/detailed/1a0f1159f5c75ae1b96b30b4ed4f3c5a/6-principles-for-a-market-design-that-enables-the-energy-transition,,www.google.com,0,1,0,0,www.ee-ip.org/articles/detailed/1a0f1159f5c75ae1b96b30b4ed4f3c5a/6-principles-for-a-market-design-that-enables-the-energy-transition
Eltima,322-499-4142,http://www.lyrici.com,109.20.213.147,38.33.72.239,07-06-2019 17:07,1366 * 768,5.0 (Windows NT 6.1; Win64; x64) AppleWebKit/537.,Chrome/74.0.3729.169 Safari/537.36,Desktop,11.6146,45.5456,Italy,Villaggio Montegrappa,Vicenza,,ee-ip.org/about,,www.google.com,0,1,0,0,www.ee-ip.org/about
Schneier,200-427-4926,http://www.schneier.com,186.185.97.185,48.12.47.163,07-06-2019 12:36,1920 * 1200,5.0 (X11),Firefox,Desktop,10.0107,53.5583,Germany,Hamburg,Hamburg,,ee-ip.org,,,0,0,0,3124,www.ee-ip.org --> www.ee-ip.org/about --> www.ee-ip.org/partners --> www.ee-ip.org/legal-notices --> www.ee-ip.org/about --> www.ee-ip.org
Nocoty,340-558-6586,http://www.nwanime.com,209.224.42.17,182.156.44.130,07-06-2019 11:09,1920 * 1200,5.0 (Windows),Firefox,Desktop,6.72483,51.97141,Netherlands,Winterswijk,Gelderland,,www2.ee-ip.org/content/CompanyPage/show/norsk-energi/file/106_Energy_Efficiency_in_Ferroalloy_Industry,,www.linkedin.com,0,1,0,0,www.www2.ee-ip.org/content/CompanyPage/show/norsk-energi/file/106_Energy_Efficiency_in_Ferroalloy_Industry
Truste,657-012-0180,http://www.falevono.com,65.81.106.159,29.161.26.130,07-06-2019 03:49,800 * 600,5.0 (X11; Linux x86_64) AppleWebKit/537.36 (KHTML,Ubuntu Chromium/74.0.3729.169 HeadlessChrome/74.0.3729.169 Safari/537.36,Desktop,15.62266,48.20454,Austria,Sankt Poelten,Niederoesterreich,,ee-ip.org,,,0,0,0,0,www.ee-ip.org
Paessler,724-367-7408,http://www.cbengine.com,16.172.15.43,244.83.243.239,06-06-2019 17:30,1920 * 1080,5.0 (Windows NT 10.0; Win64; x64) AppleWebKit/537,Chrome/64.0.3282.140 Safari/537.36 Edge/18.17763,Desktop,10.3975,43.7194,Italy,Pisa,Pisa,,ee-ip.org,,www.bing.com,0,1,0,21,www.ee-ip.org --> www.ee-ip.org/articles --> www.ee-ip.org
Pikimal,626-298-0002,http://www.autotask.com,111.205.23.227,123.18.224.67,06-06-2019 16:33,1920 * 1080,5.0 (Windows),Firefox,Desktop,15.44172,47.06792,Austria,Graz,Steiermark,,www2.ee-ip.org/content/CompanyPage/show/swep-international/file/434_Outokumpu_Cools_Machine_Shop_using_natural_Elements,,t.co,0,0,0,0,www.www2.ee-ip.org/content/CompanyPage/show/swep-international/file/434_Outokumpu_Cools_Machine_Shop_using_natural_Elements
Oncewed,401-263-1256,http://www.gayroyal.com,213.93.26.96,47.50.200.237,06-06-2019 16:28,1366 * 768,5.0 (Windows NT 6.1; WOW64; Trident/7.0; SLCC2; .,Firefox,Desktop,9.52376,45.54408,Italy,Groppello D'Adda,Milano,,ee-ip.org/articles/detailed/53342740eae28d5ee08e107a0b057533/icp-top-2-benefits-for-energy-efficiency-project-developers,,,0,0,0,894,www.ee-ip.org/articles/detailed/53342740eae28d5ee08e107a0b057533/icp-top-2-benefits-for-energy-efficiency-project-developers --> www.ee-ip.org/articles/detailed/53342740eae28d5ee08e107a0b057533/icp-top-2-benefits-for-energy-efficiency-project-developers
Oncewed,401-263-1256,http://www.gayroyal.com,213.93.26.96,47.50.200.237,06-06-2019 16:22,1920 * 1080,5.0 (Windows NT 6.3; Win64; x64) AppleWebKit/537.,Chrome/75.0.3770.80 Safari/537.36,Desktop,9.52376,45.54408,Italy,Groppello D'Adda,Milano,,ee-ip.org/articles/detailed/53342740eae28d5ee08e107a0b057533/icp-top-2-benefits-for-energy-efficiency-project-developers,,,0,0,0,0,www.ee-ip.org/articles/detailed/53342740eae28d5ee08e107a0b057533/icp-top-2-benefits-for-energy-efficiency-project-developers
Sermepa,313-967-8708,http://www.ebuyer.com,16.124.115.41,9.120.223.160,06-06-2019 13:42,1920 * 1080,5.0 (Windows NT 6.1; WOW64) AppleWebKit/537.36 (K,Chrome/74.0.3729.169 Safari/537.36,Desktop,9.9201,57.04723,Denmark,Aalborg,Nordjylland,,ee-ip.org/articles/detailed/8283f2a21cf5ec6221708ddc17cf2721/the-profile-of-energy-use-in-industrial-motor-systems,,www.google.com,0,1,0,0,www.ee-ip.org/articles/detailed/8283f2a21cf5ec6221708ddc17cf2721/the-profile-of-energy-use-in-industrial-motor-systems
Eholiday,214-468-0943,http://www.priceza.com,93.125.23.235,244.132.182.131,06-06-2019 13:21,412 * 732,5.0 (Linux; Android 9; Nokia 6.1) AppleWebKit/537,Version/4.0 Chrome/74.0.3729.157 Mobile Safari/537.36 [FB_IAB/FB4A;FBAV/220.0.0.46.112;],Mobile,9.42152,50.72126,Germany,Schwarz,Hessen,,ee-ip.org/articles/detailed/acf17ceb7cc3ca018ef3b57f08c2ce0f/making-an-impact,,com.linkedin.android,0,1,0,0,www.ee-ip.org/articles/detailed/acf17ceb7cc3ca018ef3b57f08c2ce0f/making-an-impact
Hscripts,430-152-1725,http://www.baicai.com,133.191.74.216,174.11.205.47,06-06-2019 12:51,1920 * 1080,5.0 (Windows),Firefox,Desktop,-9.23639,38.76333,Portugal,Amadora,Lisboa,,ee-ip.org,,,0,0,0,13,www.ee-ip.org --> www.ee-ip.org/about
Coldplay,868-561-7986,http://www.milenio.com,26.153.228.8,26.43.140.207,06-06-2019 12:04,1920 * 1080,5.0 (Windows NT 10.0; Win64; x64) AppleWebKit/537,Chrome/74.0.3729.169 Safari/537.36,Desktop,15.97511,45.83258,Croatia,Zagreb,Grad Zagreb,,ee-ip.org/articles/detailed/34260b0b3988ea8db952bd0136a17120/glass-industry-16-emerging-technologies-for-energy-efficiency-and-ghg-emissions-reduction,,www.google.com,0,1,0,0,www.ee-ip.org/articles/detailed/34260b0b3988ea8db952bd0136a17120/glass-industry-16-emerging-technologies-for-energy-efficiency-and-ghg-emissions-reduction
Hangame,724-367-7408,http://www.hirado.com,159.162.154.228,99.186.33.72,06-06-2019 11:44,1366 * 768,5.0 (Windows NT 10.0; Win64; x64) AppleWebKit/537,Chrome/74.0.3729.169 Safari/537.36,Desktop,4.37178,50.82768,Belgium,Elsene,Brussels,,ee-ip.org,,,0,0,0,31,www.ee-ip.org --> www.ee-ip.org/services --> www.ee-ip.org
Chewen,859-876-0544,http://www.eltima.com,242.179.16.65,13.119.25.110,06-06-2019 10:35,1280 * 800,5.0 (X11),Firefox,Desktop,36.81667,-1.28333,Kenya,Nairobi,Nairobi Area,,ee-ip.org/about,,www.google.com,0,1,0,0,www.ee-ip.org/about
Hangame,724-367-7408,http://www.hirado.com,21.113.3.150,155.4.42.103,06-06-2019 09:44,320 * 568,5.0 (iPhone; CPU iPhone OS 12_2 like Mac OS X) Ap,CriOS/74.0.3729.155 Mobile/15E148 Safari/605.1,Mobile,4.392521506,50.8208166,Belgium,Elsene,Brussels,,ee-ip.org,,,0,0,1,125,www.ee-ip.org --> www.ee-ip.org/about --> www.ee-ip.org/partners --> www.ee-ip.org/partners
Bravotv,502-064-1392,http://www.nocoty.com,3.214.161.212,181.147.207.190,06-06-2019 09:38,1536 * 864,5.0 (Windows NT 10.0; Win64; x64) AppleWebKit/537,Chrome/73.0.3683.103 Safari/537.36 OPR/60.0.3255.84 (Edition Campaign 75,Desktop,2.34107,48.86023,France,Paris,Paris,,www2.ee-ip.org/content/CompanyPage/show/pepite-sa/file/158_Prayon_case_study:_with_data_mining_to_energy_efficiency_improvements,,www.google.com,0,1,0,0,www.www2.ee-ip.org/content/CompanyPage/show/pepite-sa/file/158_Prayon_case_study:_with_data_mining_to_energy_efficiency_improvements
Fatafeat,724-367-7408,,182.241.169.57,169.173.175.110,06-06-2019 04:54,1280 * 1024,"5.0 (Windows NT 6.1) AppleWebKit/537.36 (KHTML, l",Chrome/55.0.2883.87 Safari/537.36,Desktop,120.08833,30.84528,China,Huzhou,Zhejiang,,ee-ip.org,,,0,0,0,0,www.ee-ip.org
Digtriad,867-201-7934,http://www.truste.com,43.45.78.112,78.102.229.38,05-06-2019 11:22,375 * 812,5.0 (iPhone; CPU iPhone OS 12_3_1 like Mac OS X) ,Version/12.1.1 Mobile/15E148 Safari/604.1,Mobile,18.00843,59.36888,Sweden,Solna,Stockholms Lan,,ee-ip.org/articles/detailed/8c9a196e2fef8fe8433f4dfbca0cee3a/icp-partners-made-it,,t.co,0,0,0,0,www.ee-ip.org/articles/detailed/8c9a196e2fef8fe8433f4dfbca0cee3a/icp-partners-made-it
Dolist,724-367-7408,,5.127.79.77,193.67.165.23,05-06-2019 10:03,1920 * 1080,5.0 (Windows NT 10.0; Win64; x64) AppleWebKit/537,Chrome/74.0.3729.169 Safari/537.36,Desktop,2.16836,41.37959,Spain,Barcelona,Barcelona,,www2.ee-ip.org/content/CompanyPage/show/european-copper-institute/file/296_Behind-the-Meter_Energy_Storage_Systems,,www.google.com,0,1,0,0,www.www2.ee-ip.org/content/CompanyPage/show/european-copper-institute/file/296_Behind-the-Meter_Energy_Storage_Systems
Secunia,433-968-0917,http://www.paessler.com,103.169.112.237,81.99.179.122,04-06-2019 23:39,1536 * 864,5.0 (Windows NT 6.1; Win64; x64) AppleWebKit/537.,Chrome/74.0.3729.169 Safari/537.36,Desktop,-83.111936,42.5107456,United States,Dallas,Oakland County,,ee-ip.org/articles/detailed/e3856df40e2342fa6e02d4d5d9e11afe/utilize-all-the-available-energy-heat-recovery,,www.google.com,0,1,1,0,www.ee-ip.org/articles/detailed/e3856df40e2342fa6e02d4d5d9e11afe/utilize-all-the-available-energy-heat-recovery
Kheraldm,974-545-4401,http://www.pikimal.com,102.15.203.136,94.13.41.236,04-06-2019 20:04,1280 * 800,5.0 (Macintosh; Intel Mac OS X 10_14_5) AppleWebK,Mobile/16C50 Version/12.1.1 Safari/605.1.15 (AirWatch Browser v7.3.1,Mac,-122.4425,37.76917,United States,San Francisco,California,,ee-ip.org/articles/detailed/999325585c33f81f2b421390498a8124/energy-audit-in-smes-could-unlock-great-energy-efficiency-potential-in-europe-a-focus-on-the-italia,,www.google.com,0,1,0,0,www.ee-ip.org/articles/detailed/999325585c33f81f2b421390498a8124/energy-audit-in-smes-could-unlock-great-energy-efficiency-potential-in-europe-a-focus-on-the-italia
Sendouts,923-846-2461,http://www.oncewed.com,117.28.11.173,166.249.76.60,04-06-2019 16:06,360 * 720,5.0 (Linux; Android 8.1.0; Redmi S2 Build/OPM1.17,Version/4.0 Chrome/74.0.3729.157 Mobile Safari/537.36 [FB_IAB/FB4A;FBAV/223.0.0.47.120;],Mobile,16.3135763,47.9774615,Austria,Oberwaltersdorf,Baden,,ee-ip.org/articles/detailed/acf17ceb7cc3ca018ef3b57f08c2ce0f/making-an-impact,,m.facebook.com,0,0,1,0,www.ee-ip.org/articles/detailed/acf17ceb7cc3ca018ef3b57f08c2ce0f/making-an-impact
Imstores,724-367-7408,,158.28.248.213,89.245.153.11,04-06-2019 15:42,1680 * 1050,5.0 (Macintosh),Firefox,Mac,80.2508,13.0524,India,Chennai,Tamil Nadu,,ee-ip.org/articles/detailed/a2bd6c7cc795a02e466014f1d9ea5e2c/blockchain-in-the-energy-sector-is-moving-forward-key-takeaways-from-the-eventhorizon-2018,,www.google.com,0,1,0,0,www.ee-ip.org/articles/detailed/a2bd6c7cc795a02e466014f1d9ea5e2c/blockchain-in-the-energy-sector-is-moving-forward-key-takeaways-from-the-eventhorizon-2018
Hahaqing,760-853-5688,http://www.sermepa.com,209.224.42.17,8.76.248.212,04-06-2019 14:50,1920 * 1080,5.0 (Windows NT 10.0; Win64; x64) AppleWebKit/537,Chrome/74.0.3729.169 Safari/537.36,Desktop,4.86213,52.2076,Netherlands,Mijdrecht,Utrecht,,ee-ip.org/articles/detailed/e3856df40e2342fa6e02d4d5d9e11afe/utilize-all-the-available-energy-heat-recovery,,www.google.nl,0,1,0,0,www.ee-ip.org/articles/detailed/e3856df40e2342fa6e02d4d5d9e11afe/utilize-all-the-available-energy-heat-recovery
Founder,724-367-7408,http://www.eholiday.com,57.139.145.32,158.45.210.33,04-06-2019 14:20,1516 * 947,5.0 (Windows NT 10.0; Win64; x64) AppleWebKit/537,Chrome/58.0.3029.110 Safari/537.36 Edge/16.16299,Desktop,-3.321,51.566,United Kingdom,Church Village,Rhondda Cynon Taff,,ee-ip.org/articles/detailed/ca964c970447bfe0721c763ab4b2b43c/energy-flexibility-initiative-from-the-university-of-stuttgart,,www.bing.com,0,1,0,0,www.ee-ip.org/articles/detailed/ca964c970447bfe0721c763ab4b2b43c/energy-flexibility-initiative-from-the-university-of-stuttgart
Javforum,760-160-9567,http://www.hscripts.com,88.198.2.158,102.238.216.109,04-06-2019 10:56,1113 * 890,5.0 (Windows NT 6.1; WOW64; Trident/7.0; SLCC2; .,Firefox,Desktop,14.99571,57.66106,Sweden,Eksjo,Jonkopings Lan,,ee-ip.org/articles/detailed/c4a9bce1728be9d76641b9b9f01530fa/farewell-to-traditional-compressor-based-refrigeration,,www.google.com,0,1,0,0,www.ee-ip.org/articles/detailed/c4a9bce1728be9d76641b9b9f01530fa/farewell-to-traditional-compressor-based-refrigeration
Motime,451-583-9339,http://www.coldplay.com,109.77.233.210,251.230.199.159,04-06-2019 10:47,1680 * 1050,5.0 (Windows NT 10.0; Win64; x64) AppleWebKit/537,Chrome/74.0.3729.169 Safari/537.36,Desktop,8.53695,47.37417,Switzerland,Zuerich,Zuerich,,ee-ip.org/articles/detailed/118b6fd8f841b469f817b35dbc32c344/more-than-ronaldo-how-5-innovative-portuguese-companies-drive-energy-efficiency,,www.linkedin.com,0,1,0,3516,www.ee-ip.org/articles/detailed/118b6fd8f841b469f817b35dbc32c344/more-than-ronaldo-how-5-innovative-portuguese-companies-drive-energy-efficiency --> www.ee-ip.org --> www.ee-ip.org/nc/business-practices --> www.ee-ip.org/articles --> www.ee-ip.org/articles/detailed/acf17ceb7cc3ca018ef3b57f08c2ce0f/making-an-impact --> www.ee-ip.org --> www.ee-ip.org/articles --> www.ee-ip.org
Asbseo,626-392-9795,http://www.chewen.com,189.205.148.104,179.138.172.118,04-06-2019 10:24,800 * 600,5.0 (X11; Linux x86_64) AppleWebKit/537.36 (KHTML,HeadlessChrome/73.0.3679.0 Safari/537.36,Desktop,-77.4742,39.0437,United States,Ashburn,Virginia,,ee-ip.org,,,0,0,0,0,www.ee-ip.org
Popdust,320-770-7881,http://www.bravotv.com,255.19.201.237,19.149.68.188,04-06-2019 10:22,1280 * 720,5.0 (Windows),Firefox,Desktop,4.35249,50.84674,Belgium,Brussels,Brussels,,ee-ip.org,,www.google.com,0,1,0,166,www.ee-ip.org --> www.ee-ip.org/about --> www.ee-ip.org/services
Fanfou,925-725-7302,http://www.fanfou.com,67.238.76.252,132.181.68.224,04-06-2019 07:30,1680 * 1050,5.0 (Windows NT 10.0; Win64; x64) AppleWebKit/537,Chrome/73.0.3683.103 Safari/537.36 OPR/60.0.3255.95,Desktop,28.23565,61.04668,Finland,Lappeenranta,Etela-Karjala,,ee-ip.org/articles,,www.ee-ip.org,0,0,0,0,www.ee-ip.org/articles
Bizpowa,389-565-0269,http://www.fatafeat.com,117.143.92.101,135.243.91.144,03-06-2019 22:40,1920 * 1080,5.0 (Windows NT 10.0; Win64; x64) AppleWebKit/537,Chrome/74.0.3729.108 Safari/537.36,Desktop,-47.90088,-15.74092,Brazil,Brasilia,Distrito Federal,,ee-ip.org/articles/detailed/add4074d8ed903b257db63c17278173a/risk-minimization-for-energy-efficiency-projects,,www.google.com,0,1,0,0,www.ee-ip.org/articles/detailed/add4074d8ed903b257db63c17278173a/risk-minimization-for-energy-efficiency-projects
Autobacs,265-059-1429,http://www.digtriad.com,196.42.221.87,236.103.163.92,03-06-2019 21:52,1600 * 900,5.0 (Windows),Firefox,Desktop,-70.656,-33.465,Chile,Santiago,Region Metropolitana,,ee-ip.org/articles/detailed/597c40b4f191d141b0905cff80768f39/is-an-energy-revolution-underway-in-chile,,www.google.com,0,1,0,0,www.ee-ip.org/articles/detailed/597c40b4f191d141b0905cff80768f39/is-an-energy-revolution-underway-in-chile
Starblog,724-367-7408,,12.141.152.199,158.184.162.146,03-06-2019 18:44,834 * 1112,5.0 (iPad; CPU OS 12_1_4 like Mac OS X) AppleWebK,Version/12.0 Mobile/15E148 Safari/604.1,Tablet,15.0964,37.541,Italy,Canalicchio,Catania,,www2.ee-ip.org/content/CompanyPage/show/enerit/file/124_UCC_First_University_to_Achieve_ISO_50001,,www.google.it,0,1,0,0,www.www2.ee-ip.org/content/CompanyPage/show/enerit/file/124_UCC_First_University_to_Achieve_ISO_50001
Babbel,372-245-3976,http://www.dolist.com,92.137.27.189,10.122.240.5,03-06-2019 18:15,1536 * 961,5.0 (Windows NT 6.1; Win64; x64) AppleWebKit/537.,Chrome/74.0.3729.108 Safari/537.36,Desktop,1.39689,43.63456,France,Blagnac,Haute-Garonne,,ee-ip.org/articles/detailed/e3856df40e2342fa6e02d4d5d9e11afe/utilize-all-the-available-energy-heat-recovery,,www.google.com,0,1,0,0,www.ee-ip.org/articles/detailed/e3856df40e2342fa6e02d4d5d9e11afe/utilize-all-the-available-energy-heat-recovery
Lapatria,469-518-0689,http://www.secunia.com,237.49.11.63,185.248.128.9,03-06-2019 17:26,1920 * 1080,5.0 (Windows),Firefox,Desktop,4.72575,44.58285,France,Ancone,Drome,,ee-ip.org/articles/detailed,,www.efficienzaenergetica.enea.it,0,0,0,0,www.ee-ip.org/articles/detailed
Futbolya,905-672-8385,http://www.kheraldm.com,224.57.156.231,193.138.129.226,03-06-2019 16:26,1920 * 1200,5.0 (Windows),Firefox,Desktop,15.44172,47.06792,Austria,Graz,Steiermark,,ee-ip.org/articles/detailed/f5767647a9ab96645b2cc539b425668c/waste-heat-recovery-first-european-industry-project-certified-by-the-investor-confidence-project,,www.google.at,0,1,0,0,www.ee-ip.org/articles/detailed/f5767647a9ab96645b2cc539b425668c/waste-heat-recovery-first-european-industry-project-certified-by-the-investor-confidence-project
Gusttube,737-906-0572,http://www.sendouts.com,67.245.75.142,149.167.99.30,03-06-2019 15:44,1280 * 800,5.0 (Macintosh; Intel Mac OS X 10_14_5) AppleWebK,Mobile/16C50 Version/12.1.1 Safari/605.1.15 (AirWatch Browser v7.3.1,Mac,-3.68514,40.43635,Spain,Madrid,Madrid,,ee-ip.org/articles/detailed/34260b0b3988ea8db952bd0136a17120/glass-industry-16-emerging-technologies-for-energy-efficiency-and-ghg-emissions-reduction,,www.google.com,0,1,0,0,www.ee-ip.org/articles/detailed/34260b0b3988ea8db952bd0136a17120/glass-industry-16-emerging-technologies-for-energy-efficiency-and-ghg-emissions-reduction
Noobfuck,724-367-7408,,177.224.39.121,248.127.144.8,03-06-2019 13:58,1920 * 1080,5.0 (Windows NT 10.0; Win64; x64) AppleWebKit/537,Chrome/74.0.3729.169 Safari/537.36,Desktop,126.98265,37.561,Korea (South),Seoul,Seoul Teukbyeolsi,,ee-ip.org/articles/detailed/6aca03305a9634e44c6fa7393b5fd384/artificial-intelligence-in-energy-management-software,,www.google.com,0,1,0,0,www.ee-ip.org/articles/detailed/6aca03305a9634e44c6fa7393b5fd384/artificial-intelligence-in-energy-management-software
Fanfou,925-725-7302,http://www.fanfou.com,67.238.76.252,132.181.68.224,03-06-2019 07:33,1680 * 1050,5.0 (Windows NT 10.0; Win64; x64) AppleWebKit/537,Chrome/73.0.3683.103 Safari/537.36 OPR/60.0.3255.95,Desktop,28.23565,61.04668,Finland,Lappeenranta,Etela-Karjala,,ee-ip.org/articles,,www.ee-ip.org,0,0,0,0,www.ee-ip.org/articles
Htpmedia,724-367-7408,,159.13.154.44,124.124.84.232,01-06-2019 13:13,1607 * 904,5.0 (Windows NT 10.0; Win64; x64) AppleWebKit/537,Chrome/58.0.3029.110 Safari/537.36 Edge/16.16299,Desktop,44.83368,41.69411,Georgia,Tbilisi,Tbilisi,,ee-ip.org,,www.bing.com,0,1,0,10,www.ee-ip.org --> www.ee-ip.org/articles/detailed/acf17ceb7cc3ca018ef3b57f08c2ce0f/making-an-impact --> www.ee-ip.org/events
Hdclub,622-122-5554,,82.214.159.148,219.48.181.137,31-05-2019 21:23,1600 * 800,5.0 (Windows NT 10.0; Win64; x64) AppleWebKit/537,Chrome/66.0.3305.146 Safari/537.36 OPR/54.0.3271.46,Desktop,-74.46468,40.55176,United States,Piscataway Township,New Jersey,,ee-ip.org/events,,,0,0,0,0,www.ee-ip.org/events
Pushpi,674-096-1812,http://www.imstores.com,204.139.107.101,231.29.185.56,31-05-2019 17:17,1920 * 1080,5.0 (Windows NT 10.0; Win64; x64) AppleWebKit/537,Chrome/74.0.3729.169 Safari/537.36,Desktop,9.192,45.472,Italy,Milano,Milano,,ee-ip.org/articles/detailed/5744e330c75634733f10ed7a0b23a649/simply-not-enough,,www.google.com,0,1,0,0,www.ee-ip.org/articles/detailed/5744e330c75634733f10ed7a0b23a649/simply-not-enough
Quanjing,461-097-7116,http://www.hahaqing.com,37.227.238.48,146.105.98.219,31-05-2019 13:09,1920 * 1080,5.0 (Windows NT 10.0; WOW64) AppleWebKit/537.36 (,Chrome/70.0.3538.110 Safari/537.36,Desktop,-3.57115,40.46789,Spain,Madrid,Madrid,,www2.ee-ip.org/content/CompanyPage/show/european-copper-institute/file/296_Behind-the-Meter_Energy_Storage_Systems,,www.google.com,0,1,0,0,www.www2.ee-ip.org/content/CompanyPage/show/european-copper-institute/file/296_Behind-the-Meter_Energy_Storage_Systems
Alinea,921-678-3730,http://www.founder.com,234.148.95.226,254.68.238.44,31-05-2019 11:15,1366 * 768,5.0 (Windows NT 6.1; Win64; x64) AppleWebKit/537.,Chrome/74.0.3729.169 Safari/537.36,Desktop,72.8777,19.076,India,Mumbai,Maharashtra,,ee-ip.org/articles/detailed/ef1380f71ca6a485cb75724f21b675d8/the-benefit-of-compressed-air-systems-becoming-smart-a-boge-example,,www.google.com,0,1,0,0,www.ee-ip.org/articles/detailed/ef1380f71ca6a485cb75724f21b675d8/the-benefit-of-compressed-air-systems-becoming-smart-a-boge-example
Blogimg,865-338-7659,http://www.javforum.com,53.21.249.121,153.97.131.10,30-05-2019 22:02,2240 * 1400,5.0 (Windows NT 6.1; WOW64; Trident/7.0; SLCC2; .,Firefox,Desktop,-118.29227,34.0476,United States,Los Angeles,California,,ee-ip.org/services,,www.google.com,0,1,0,0,www.ee-ip.org/services
Hdclub,622-122-5554,,82.214.159.148,219.48.181.137,30-05-2019 21:56,1600 * 800,5.0 (Windows NT 10.0; Win64; x64) AppleWebKit/537,Chrome/67.0.3396.79 Safari/537.36 PTST/180605.140611,Desktop,-74.46468,40.55176,United States,Piscataway Township,New Jersey,,ee-ip.org/events,,,0,0,0,0,www.ee-ip.org/events
Maniash,378-229-9414,http://www.motime.com,11.161.47.128,231.213.8.163,30-05-2019 15:43,1280 * 720,5.0 (Windows NT 10.0; Win64; x64) AppleWebKit/537,Chrome/74.0.3729.169 Safari/537.36,Desktop,0.8879367,52.2247577,United Kingdom,Bury Saint Edmunds,Suffolk,,www2.ee-ip.org/content/CompanyPage/show/ksb-aktiengesellschaft/file/290_Hydraulic_system_-_energy_efficiency_optimization,,www.google.com,0,1,1,0,www.www2.ee-ip.org/content/CompanyPage/show/ksb-aktiengesellschaft/file/290_Hydraulic_system_-_energy_efficiency_optimization
Popphoto,270-092-0104,http://www.asbseo.com,115.135.17.215,228.252.158.237,30-05-2019 01:28,1024 * 768,5.0 (Windows),Firefox,Desktop,-0.1262,51.5002,United Kingdom,London,Greater London,,,,,0,0,0,0,
Hdclub,622-122-5554,,82.214.159.148,219.48.181.137,29-05-2019 22:28,1600 * 800,5.0 (Windows NT 10.0; Win64; x64) AppleWebKit/537,Chrome/66.0.3349.146 Safari/537.36 OPR/55.0.3010.46,Desktop,-74.46468,40.55176,United States,Piscataway Township,New Jersey,,ee-ip.org/events,,,0,0,0,0,www.ee-ip.org/events
Savefrom,724-367-7408,,149.130.171.66,126.34.18.0,29-05-2019 14:25,1600 * 900,5.0 (Windows NT 6.1; Win64; x64) AppleWebKit/537.,Chrome/74.0.3729.169 Safari/537.36,Desktop,27.56,40.59,Turkey,Marmara,Balikesir,,ee-ip.org/articles/detailed/7cc969ab93f80c76a54ecc339c544ae9/turkey-industrial-energy-efficiency-strategy,,www.google.com,0,1,0,30,www.ee-ip.org/articles/detailed/7cc969ab93f80c76a54ecc339c544ae9/turkey-industrial-energy-efficiency-strategy --> www.ee-ip.org/about --> www.ee-ip.org/articles/detailed/7cc969ab93f80c76a54ecc339c544ae9/turkey-industrial-energy-efficiency-strategy
Pmcmed,724-367-7408,http://www.popdust.com,49.42.128.252,165.71.124.127,29-05-2019 13:35,1440 * 900,5.0 (Macintosh; Intel Mac OS X 10_14_4) AppleWebK,Version/12.1 Safari/605.1.15,Mac,4.35249,50.84674,Belgium,Brussels,Brussels,,ee-ip.org,,,0,0,0,0,www.ee-ip.org
Iransaze,724-367-7408,,229.98.255.133,97.117.111.148,29-05-2019 12:03,1600 * 900,5.0 (Windows NT 6.3; Win64; x64) AppleWebKit/537.,Chrome/74.0.3729.169 Safari/537.36,Desktop,55.40944,25.34806,United Arab Emirates,Ash Shariqah,Ash Shariqah,,ee-ip.org/magazine,,www.google.com,0,1,0,0,www.ee-ip.org/magazine
Qianyan,724-367-7408,,61.179.43.210,97.106.183.80,29-05-2019 11:07,1920 * 1080,5.0 (Windows NT 6.1; WOW64; Trident/7.0; AskTbORJ,Firefox,Desktop,14.53373,53.39061,Poland,Szczecin,Zachodniopomorskie,,ee-ip.org,,www.bing.com,0,1,0,0,www.ee-ip.org
Popphoto,270-092-0104,http://www.asbseo.com,45.157.145.146,0.77.211.253,29-05-2019 00:11,1024 * 768,5.0 (Windows),Firefox,Desktop,-0.1262,51.5002,United Kingdom,London,Greater London,,,,,0,0,0,0,
Autotask,724-367-7408,http://www.bizpowa.com,253.158.233.201,245.243.99.191,28-05-2019 21:12,1920 * 1080,5.0 (Windows),Firefox,Desktop,-93.23382,44.97316,United States,Minneapolis,Minnesota,,ee-ip.org/articles/detailed/4f4b42dca867849009fa2064b0b91c78/utilities-large-missed-opportunity-demand-response-in-manufacturing,,www.google.com,0,1,0,0,www.ee-ip.org/articles/detailed/4f4b42dca867849009fa2064b0b91c78/utilities-large-missed-opportunity-demand-response-in-manufacturing
