Organisation Name,Telephone Number,Website,Hostname,IP Address,Session Start Date/Time,Monitor Resolution,Operating System,Browser,Device Type,Longitude,Latitude,Country,Town / City,County / State,Registered Address,Entry Page,Keywords,Sources,PPC,Organic,Geolocated,Visit Duration,Page Visits
"Amazon.Com, Inc.",206-266-1000,https://www.amazon.com/,ec2-34-222-106-209.us-west-2.compute.amazonaws.com,34.222.106.209,"2019-07-10 22:38:44","800 * 600","5.0 (X11; Linux x86_64) AppleWebKit/537.36 (KHTML","Ubuntu Chromium/68.0.3440.106 HeadlessChrome/68.0.3440.106 Safari/537.36",Desktop,-119.699,45.836,"United States",Boardman,Oregon,,ee-ip.org/services,,,0,0,0,0,www.ee-ip.org/services
"Glen Dimplex Deutschland Gmbh","""+49 9221 709 0""",http://www.glendimplex.de,80.154.119.88,80.154.119.88,"2019-07-10 12:52:39","1920 * 1080","5.0 (Windows)",Firefox,Desktop,11.5713,49.9456,Germany,Bayreuth,Bayern,,ee-ip.org/articles/detailed/7a63d03adb027ab72323daa86bdbd98d/electric-vehicles-heat-pumps-electric-motors-play-a-crucial-role-in-the-energy-transition,,www.google.com,0,1,0,0,www.ee-ip.org/articles/detailed/7a63d03adb027ab72323daa86bdbd98d/electric-vehicles-heat-pumps-electric-motors-play-a-crucial-role-in-the-energy-transition
"Streetscooter Gmbh","""+49 241 9900 23-0""",http://www.streetscooter.eu/,mail.streetscooter.eu,87.79.8.90,"2019-07-10 10:04:34","1536 * 864","5.0 (Windows)",Firefox,Desktop,6.87316,50.95802,Germany,Koeln-Vogelsang,Nordrhein-Westfalen,,ee-ip.org/articles/detailed/7a63d03adb027ab72323daa86bdbd98d/electric-vehicles-heat-pumps-electric-motors-play-a-crucial-role-in-the-energy-transition,,www.google.com,0,1,0,143,"www.ee-ip.org/articles/detailed/7a63d03adb027ab72323daa86bdbd98d/electric-vehicles-heat-pumps-electric-motors-play-a-crucial-role-in-the-energy-transition --> www.ee-ip.org/articles"
"Anders Andersen Cleaning","43 99 99 99",http://www.aaren.dk/,87.116.38.202,87.116.38.202,"2019-07-10 10:02:38","2560 * 1440","5.0 (Windows NT 10.0; Win64; x64) AppleWebKit/537","Chrome/75.0.3770.100 Safari/537.36 PTST/SpeedCurve/190626.190633",Desktop,12.58783,55.68051,Denmark,Kobenhavn,Hovedstaden,,ee-ip.org/articles/detailed/6aca03305a9634e44c6fa7393b5fd384/artificial-intelligence-in-energy-management-software,,www.google.com,0,1,0,0,www.ee-ip.org/articles/detailed/6aca03305a9634e44c6fa7393b5fd384/artificial-intelligence-in-energy-management-software
"Petrol Group","""+ 386 1 47 14 234""",www.petrol.eu/,193.77.161.11,193.77.161.11,"2019-07-10 09:55:56","1536 * 864","5.0 (Windows NT 10.0; Win64; x64) AppleWebKit/537","Chrome/75.0.3770.100 Safari/537.36 PTST/SpeedCurve/190626.190633",Desktop,14.5160884,46.0621634,Slovenia,Ljubljana,Ljubljana,,www2.ee-ip.org/content/CompanyPage/show/norsk-energi/file/101_Energy_Management_-_Step_by_Step,,,0,0,1,0,www.www2.ee-ip.org/content/CompanyPage/show/norsk-energi/file/101_Energy_Management_-_Step_by_Step
"Turun Kaupunki","(02) 330 000",https://www.turku.fi,194.111.66.10,194.111.66.10,"2019-07-10 08:31:25","1920 * 1080","5.0 (Windows)",Firefox,Desktop,22.17399,60.43177,Finland,Turku,Varsinais-Suomi,,ee-ip.org,,www.google.com,0,1,0,15,"www.ee-ip.org --> www.ee-ip.org/about --> www.ee-ip.org/about"
"A Niemi Engineering Oy","""+358 40 5147 719""",http://www.niemiengineering.fi/,62-165-140-193.co.dnainternet.fi,62.165.140.193,"2019-07-10 07:55:16","1680 * 1050","5.0 (Windows NT 10.0; Win64; x64) AppleWebKit/537","Chrome/73.0.3683.103 Safari/537.36 OPR/60.0.3255.170 (Edition Campaign 21",Desktop,28.23565,61.04668,Finland,Lappeenranta,Etela-Karjala,,ee-ip.org/articles,,www.ee-ip.org,0,0,0,0,"www.ee-ip.org/articles --> www.ee-ip.org/articles"
"Electric Power Research Institute",202-293-6184,https://www.epri.com,144.58.40.252,144.58.40.252,"2019-07-10 00:19:03","1920 * 1080","5.0 (Windows NT 10.0; Win64; x64) AppleWebKit/537","Chrome/75.0.3770.100 Safari/537.36 PTST/SpeedCurve/190626.190633",Desktop,-122.16727,37.40432,"United States","Palo Alto",California,,ee-ip.org/articles/detailed/87f4ab4b1d6c3c767a9dcae1e30b0808/the-technical-potential-of-large-and-industrial-heat-pumps,,www.google.com,0,1,0,0,www.ee-ip.org/articles/detailed/87f4ab4b1d6c3c767a9dcae1e30b0808/the-technical-potential-of-large-and-industrial-heat-pumps
"Amazon.Com, Inc.",206-266-1000,https://www.amazon.com/,ec2-52-42-49-88.us-west-2.compute.amazonaws.com,52.42.49.88,"2019-07-09 20:44:16","800 * 600","5.0 (X11; Linux x86_64) AppleWebKit/537.36 (KHTML","Ubuntu Chromium/68.0.3440.106 HeadlessChrome/68.0.3440.106 Safari/537.36",Desktop,-119.699,45.836,"United States",Boardman,Oregon,,ee-ip.org/services,,,0,0,0,0,www.ee-ip.org/services
"Arla Foods Uk","""+45 8938 1000""",http://www.arlafoods.co.uk/,37.205.127.20,37.205.127.20,"2019-07-09 17:36:40","1979 * 1113","5.0 (Windows NT 10.0; WOW64; Trident/7.0; .NET4.0",Firefox,Desktop,10.39064,55.39624,Denmark,Odense,Syddanmark,,ee-ip.org/articles/detailed/219bd012d74c75756eb8340db1aa8b40/5-steps-for-a-robust-energy-strategy,,www.google.com,0,1,0,0,www.ee-ip.org/articles/detailed/219bd012d74c75756eb8340db1aa8b40/5-steps-for-a-robust-energy-strategy
"Mundio Mobile Ltd","020 7536 4800",https://www.mundio.com/,46.43.176.118,46.43.176.118,"2019-07-09 17:35:37","360 * 780","5.0 (Linux; Android 9; SM-A505FN) AppleWebKit/537","Version/4.0 Chrome/72.0.3626.121 Mobile Safari/537.36 YJApp-ANDROID jp.co.yahoo.android.ybrowser/2.16.0.1",Mobile,-1.1101707,52.6366827,"United Kingdom",Leicester,Leicester,"54 Marsh Wall, London, E14 9TP",ee-ip.org/articles/detailed/1f94823dd90fe3a2b15e3b8f992c2d96/local-energy-aggregation-similarities-between-the-italian-hera-group-and-the-community-choice-energ,,www.google.com,0,1,1,0,www.ee-ip.org/articles/detailed/1f94823dd90fe3a2b15e3b8f992c2d96/local-energy-aggregation-similarities-between-the-italian-hera-group-and-the-community-choice-energ
"Gestore Dei Servizi Energetici Gse S.P.A.","""+39 06.9292.8540""",https://www.gse.it,89-97-69-100.ip16.fastwebnet.it,89.97.69.100,"2019-07-09 10:11:24","1152 * 720","5.0 (Windows NT 10.0; WOW64; Trident/7.0; .NET4.0",Firefox,Desktop,12.3063,41.7755,Italy,Roma,Roma,,ee-ip.org/events/detailed/fe5ab9cc6d16bb52b19f099b4da8124c/sustainable-energy-investment-forum-financing-energy-efficiency-in-germany-france-and-austria,,www.google.it,0,1,0,0,www.ee-ip.org/events/detailed/fe5ab9cc6d16bb52b19f099b4da8124c/sustainable-energy-investment-forum-financing-energy-efficiency-in-germany-france-and-austria
Esco,"""+995 (32) 2401 420""",http://www.esco.com.ge/,mail.esco.com.ge,213.131.40.190,"2019-07-09 09:23:30","1366 * 768","5.0 (Windows NT 6.1; Win64; x64) AppleWebKit/537.","Chrome/75.0.3770.100 Safari/537.36 PTST/SpeedCurve/190626.190633",Desktop,44.83368,41.69411,Georgia,Tbilisi,Tbilisi,,ee-ip.org/articles/detailed/7cc969ab93f80c76a54ecc339c544ae9/turkey-industrial-energy-efficiency-strategy,,www.google.com,0,1,0,110,"www.ee-ip.org/articles/detailed/7cc969ab93f80c76a54ecc339c544ae9/turkey-industrial-energy-efficiency-strategy --> www.ee-ip.org/articles --> www.ee-ip.org/services --> www.ee-ip.org --> www.ee-ip.org/services --> www.ee-ip.org/articles --> www.ee-ip.org/articles/detailed/7cc969ab93f80c76a54ecc339c544ae9/turkey-industrial-energy-efficiency-strategy"
"A Niemi Engineering Oy","""+358 40 5147 719""",http://www.niemiengineering.fi/,62-165-140-193.co.dnainternet.fi,62.165.140.193,"2019-07-09 07:44:40","1680 * 1050","5.0 (Windows NT 10.0; Win64; x64) AppleWebKit/537","Chrome/73.0.3683.103 Safari/537.36 OPR/60.0.3255.170 (Edition Campaign 21",Desktop,28.23565,61.04668,Finland,Lappeenranta,Etela-Karjala,,ee-ip.org/articles,,www.ee-ip.org,0,0,0,0,"www.ee-ip.org/articles --> www.ee-ip.org/articles"
"Washington University",,wustl.edu,admin998.cec.wustl.edu,128.252.20.193,"2019-07-08 15:51:35","1344 * 840","5.0 (Windows NT 10.0; Win64; x64) AppleWebKit/537","Chrome/75.0.3770.100 Safari/537.36 PTST/SpeedCurve/190626.190633",Desktop,-90.32606,38.64533,"United States","Saint Louis",Missouri,,ee-ip.org/articles/detailed/e360b8ba312356f89fce2817eb9aa841/choosing-the-best-techniques-for-waste-heat-recovery,,www.google.com,0,1,0,0,www.ee-ip.org/articles/detailed/e360b8ba312356f89fce2817eb9aa841/choosing-the-best-techniques-for-waste-heat-recovery
"Enter Srl","""+39 030 2000975""",https://www.entersrl.com/,host-42-48.248-87.enter.it,87.248.48.42,"2019-07-08 15:00:23","1280 * 720","5.0 (Windows NT 10.0; Win64; x64) AppleWebKit/537","Chrome/75.0.3770.100 Safari/537.36 PTST/SpeedCurve/190626.190633",Desktop,9.2376,45.5135,Italy,Milano,Milano,,ee-ip.org,,www.google.com,0,1,0,1173,"www.ee-ip.org --> www.ee-ip.org"
"Hitachi, Ltd","""+81 3 3258 1111""",http://www.hitachi.co.jp/,px2.hitachi.co.jp,202.246.252.97,"2019-07-08 14:43:08","2560 * 1440","5.0 (Windows NT 10.0; Win64; x64) AppleWebKit/537","Chrome/64.0.3282.140 Safari/537.36 Edge/18.17763",Desktop,139.63816,35.56698,Japan,Kawasaki-Shi,Kanagawa,,ee-ip.org/articles/detailed/1e5b82080686ae02120cc4a9400ac380/the-4th-utility-compressed-air,,www.google.com,0,1,0,0,www.ee-ip.org/articles/detailed/1e5b82080686ae02120cc4a9400ac380/the-4th-utility-compressed-air
"Diamant Boart","""+32 (0)68 25 12 11""",http://www.diamant-boart.com/,54.18-246-81.adsl-static.isp.belgacom.be,81.246.18.54,"2019-07-08 12:42:26","1500 * 1000","5.0 (Windows NT 10.0; Win64; x64) AppleWebKit/537","Chrome/75.0.3770.100 Safari/537.36 PTST/SpeedCurve/190626.190633",Desktop,4.35249,50.84674,Belgium,Brussels,Brussels,,ee-ip.org,,www.google.com,0,1,0,4677,"www.ee-ip.org --> www.ee-ip.org --> www.ee-ip.org/articles"
"Kwame Nkrumah University",,,knumail.nkrumah.edu.zm,41.63.36.140,"2019-07-08 09:42:16","384 * 800","5.0 (Linux; Android 4.2.1; en-us; Nexus 5 Build/J","Chrome/38.0.1025.166 Mobile Safari/535.19",Mobile,-1.61083,6.68944,Ghana,Kumasi,Ashanti,,www2.ee-ip.org/content/CompanyPage/show/edur-pumpenfabrik,,,0,0,0,0,www.www2.ee-ip.org/content/CompanyPage/show/edur-pumpenfabrik
"Amazon.Com, Inc.",206-266-1000,https://www.amazon.com/,ec2-18-219-16-227.us-east-2.compute.amazonaws.com,18.219.16.227,"2019-07-08 00:35:47","1366 * 768","5.0 (X11; Linux x86_64) AppleWebKit/537.36 (KHTML","Chrome/60.0.3112.50 Safari/537.36",Desktop,-82.99946,39.99558,"United States",Columbus,Ohio,,ee-ip.org,,,0,0,0,9,"www.ee-ip.org --> www.ee-ip.org/about --> www.www2.ee-ip.org/content/CompanyPage/show/european-copper-institute/file/325_10_Facts_about_Energy_Management --> www.ee-ip.org/privacy"
Yandex,"""+1 617 398 7870""",https://yandex.com,100-43-90-112.spider.yandex.com,100.43.90.112,"2019-07-07 11:39:04","1280 * 960","""5.0 (compatible; YandexBot/3.0; +http://yandex.co""",Firefox,Desktop,-121.90678,37.34217,"United States","San Jose",California,,ee-ip.org/articles/detailed,,,0,0,0,0,www.ee-ip.org/articles/detailed
Wework,1-877-796-2434,https://www.wework.com/,63.98.217.210,63.98.217.210,"2019-07-06 20:08:32","1600 * 900","5.0 (Windows NT 10.0; Win64; x64) AppleWebKit/537","Chrome/64.0.3282.140 Safari/537.36 Edge/17.17134",Desktop,-95.36769,29.75021,"United States",Houston,Texas,,ee-ip.org/events,,www.ee-ip.org,0,0,0,0,www.ee-ip.org/events
"Amazon.Com, Inc.",206-266-1000,https://www.amazon.com/,ec2-52-14-183-77.us-east-2.compute.amazonaws.com,52.14.183.77,"2019-07-06 06:11:20","1366 * 768","5.0 (X11; Linux x86_64) AppleWebKit/537.36 (KHTML","Chrome/60.0.3112.50 Safari/537.36",Desktop,-82.99946,39.99558,"United States",Columbus,Ohio,,ee-ip.org,,,0,0,0,5,"www.ee-ip.org --> www.ee-ip.org/about --> www.www2.ee-ip.org/content/CompanyPage/show/european-copper-institute/file/325_10_Facts_about_Energy_Management --> www.ee-ip.org/privacy"
"Falk&Ross Group Europe Gmbh","""+49 (0)6303 800 270""",http://www.falk-ross.eu/,mail2.falk-ross.de,212.43.66.122,"2019-07-05 10:52:42","1920 * 1200","5.0 (Windows NT 6.1; Win64; x64) AppleWebKit/537.","Chrome/75.0.3770.100 Safari/537.36 PTST/SpeedCurve/190626.190633",Desktop,8.6821,50.1109,Germany,"Frankfurt Am Main",Hessen,,www2.ee-ip.org/content/CompanyPage/show/econ-solutions-gmbh/file/309_Mit_Energie_in_die_vernetzte_Fabrik,,www.google.com,0,1,0,0,www.www2.ee-ip.org/content/CompanyPage/show/econ-solutions-gmbh/file/309_Mit_Energie_in_die_vernetzte_Fabrik
"Microsoft Corporation","0344 800 2400",https://www.microsoft.com,51.144.88.140,51.144.88.140,"2019-07-05 09:36:53","1920 * 1080","5.0 (Windows)",Firefox,Desktop,4.917,52.35,Netherlands,Amsterdam,Noord-Holland,,ee-ip.org/about,,www.google.com,0,1,0,0,www.ee-ip.org/about
"A Niemi Engineering Oy","""+358 40 5147 719""",http://www.niemiengineering.fi/,62-165-140-193.co.dnainternet.fi,62.165.140.193,"2019-07-05 07:33:39","1680 * 1050","5.0 (Windows NT 10.0; Win64; x64) AppleWebKit/537","Chrome/73.0.3683.103 Safari/537.36 OPR/60.0.3255.170 (Edition Campaign 21",Desktop,28.23565,61.04668,Finland,Lappeenranta,Etela-Karjala,,ee-ip.org/articles,,www.ee-ip.org,0,0,0,0,www.ee-ip.org/articles
"Orcan Energy Ag","""+49.89.724 49 97-0""",http://www.orcan-energy.com,remote.orcan-energy.com,87.138.237.88,"2019-07-04 15:47:02","2133 * 1200","5.0 (Windows NT 10.0; Win64; x64) AppleWebKit/537","Chrome/64.0.3282.140 Safari/537.36 Edge/18.17763",Desktop,11.0768,49.452,Germany,Nuernberg,Bayern,,www2.ee-ip.org/content/CompanyPage/show/norsk-energi/file/102_Energy_Recovery_in_Metallurgical_Industry,,t.co,0,0,0,0,www.www2.ee-ip.org/content/CompanyPage/show/norsk-energi/file/102_Energy_Recovery_in_Metallurgical_Industry
"Foundation Myclimate The Climate Protection Partnership","""+41 44 500 43 50""",http://www.myclimate.org/,mycl-00-th-ser0.ce.ip-plus.net,212.243.95.50,"2019-07-04 15:44:43","1920 * 1200","5.0 (Windows)",Firefox,Desktop,8.53695,47.37417,Switzerland,Zuerich,Zuerich,,ee-ip.org/articles/detailed/5744e330c75634733f10ed7a0b23a649/simply-not-enough,,www.google.com,0,1,0,0,www.ee-ip.org/articles/detailed/5744e330c75634733f10ed7a0b23a649/simply-not-enough
"Tata Steel Ijmuiden Bv","""+ 31 (0) 251 499111""",http://www.tatasteel.nl,145.8.180.218,145.8.180.218,"2019-07-04 15:25:12","1920 * 1080","5.0 (Windows NT 6.3; Win64; x64) AppleWebKit/537.","Chrome/75.0.3770.80 Safari/537.36 OPR/62.0.3331.18",Desktop,4.62501,52.45821,Netherlands,Ijmuiden,Noord-Holland,,www2.ee-ip.org/content/CompanyPage/show/norsk-energi/file/102_Energy_Recovery_in_Metallurgical_Industry,,t.co,0,0,0,0,www.www2.ee-ip.org/content/CompanyPage/show/norsk-energi/file/102_Energy_Recovery_in_Metallurgical_Industry
"Honeywell International Inc.","001 (480) 353-3020",http://honeywell.com/,dce-nat149.honeywell.com,199.64.6.149,"2019-07-03 20:03:35","1600 * 900","5.0 (Windows NT 10.0; Win64; x64) AppleWebKit/537","Chrome/75.0.3770.100 Safari/537.36 PTST/SpeedCurve/190626.190633",Desktop,-74.4816,40.7968,"United States",Morristown,"New Jersey",,ee-ip.org/articles/detailed/6aca03305a9634e44c6fa7393b5fd384/artificial-intelligence-in-energy-management-software,,www.google.com,0,1,0,285,"www.ee-ip.org/articles/detailed/6aca03305a9634e44c6fa7393b5fd384/artificial-intelligence-in-energy-management-software --> www.ee-ip.org/articles/detailed/d9c5219111daf80821392c52155b09ca/can-data-analytics-replace-people-in-energy-efficiency"
"Informatika Informacijske Storitve In InÅ¾eniring D.D.","""+386 2 707 10 00""",http://www.informatika.si,91.216.172.193,91.216.172.193,"2019-07-03 11:18:30","1920 * 1080","5.0 (Windows NT 10.0; Win64; x64) AppleWebKit/537","Chrome/52.0.2743.116 Safari/537.36 Edge/15.15063",Desktop,15.665,46.578,Slovenia,Kosaki,Maribor,,ee-ip.org/articles/detailed/b875c3e979720a90462f44fb4669d063/how-greece-drives-energy-efficiency-5-innovative-companies,,,0,0,0,0,www.ee-ip.org/articles/detailed/b875c3e979720a90462f44fb4669d063/how-greece-drives-energy-efficiency-5-innovative-companies
"Stylelounge Gmbh","""+49 (0)40 - 228 170 060""",https://www.stylelounge.de/,213.128.141.154,213.128.141.154,"2019-07-03 10:49:24","1280 * 720","5.0 (Windows NT 10.0; Win64; x64) AppleWebKit/537","Chrome/75.0.3770.100 Safari/537.36 PTST/SpeedCurve/190626.190633",Desktop,9.9937,53.5511,Germany,Hamburg,Hamburg,,ee-ip.org/articles/detailed/ef1380f71ca6a485cb75724f21b675d8/the-benefit-of-compressed-air-systems-becoming-smart-a-boge-example,,www.google.com,0,1,0,0,www.ee-ip.org/articles/detailed/ef1380f71ca6a485cb75724f21b675d8/the-benefit-of-compressed-air-systems-becoming-smart-a-boge-example
"A Niemi Engineering Oy","""+358 40 5147 719""",http://www.niemiengineering.fi/,62-165-140-193.co.dnainternet.fi,62.165.140.193,"2019-07-03 07:36:14","1680 * 1050","5.0 (Windows NT 10.0; Win64; x64) AppleWebKit/537","Chrome/73.0.3683.103 Safari/537.36 OPR/60.0.3255.170 (Edition Campaign 21",Desktop,28.23565,61.04668,Finland,Lappeenranta,Etela-Karjala,,ee-ip.org/articles,,www.ee-ip.org,0,0,0,0,www.ee-ip.org/articles
"University Of Applied Sciences Hamburg","""+49.40.428 75-0 """,https://www.haw-hamburg.de,141.22.122.121,141.22.122.121,"2019-07-02 12:57:55","1024 * 768","5.0 (Windows)",Firefox,Desktop,10.0107,53.5583,Germany,Hamburg,Hamburg,,ee-ip.org,,,0,0,0,,www.ee-ip.org
"Unix-Solutions Bvba","""+32 2 400 43 33""",https://www.unix-solutions.be/,195.189.202.34,195.189.202.34,"2019-07-02 12:06:25","1536 * 864","5.0 (Windows NT 10.0; Win64; x64) AppleWebKit/537","Chrome/75.0.3770.100 Safari/537.36 PTST/SpeedCurve/190626.190633",Desktop,4.47013,50.88769,Belgium,Zaventem,Vlaams-Brabant,,ee-ip.org,,www.google.com,0,1,0,,"www.ee-ip.org --> www.ee-ip.org/about"
"University Of Applied Sciences Hamburg","""+49.40.428 75-0 """,https://www.haw-hamburg.de,141.22.122.121,141.22.122.121,"2019-07-02 10:28:09","1920 * 1200","5.0 (X11)",Firefox,Desktop,10.0107,53.5583,Germany,Hamburg,Hamburg,,ee-ip.org,,,0,0,0,,"www.ee-ip.org --> www.ee-ip.org/about --> www.ee-ip.org/about --> www.ee-ip.org"
Accenture,"""+44 (0) 131 718 3500""",https://www.accenture.com,170.252.122.1,170.252.122.1,"2019-07-02 09:17:44","1366 * 768","5.0 (Windows NT 10.0; WOW64) AppleWebKit/537.36 (","Chrome/75.0.3770.100 Safari/537.36 PTST/SpeedCurve/190626.190633",Desktop,2.34107,48.86023,France,Paris,Paris,,ee-ip.org/articles/detailed/6aca03305a9634e44c6fa7393b5fd384/artificial-intelligence-in-energy-management-software,,www.google.com,0,1,0,,www.ee-ip.org/articles/detailed/6aca03305a9634e44c6fa7393b5fd384/artificial-intelligence-in-energy-management-software
"A Niemi Engineering Oy","""+358 40 5147 719""",http://www.niemiengineering.fi/,62-165-140-193.co.dnainternet.fi,62.165.140.193,"2019-07-02 08:32:36","1680 * 1050","5.0 (Windows NT 10.0; Win64; x64) AppleWebKit/537","Chrome/73.0.3683.103 Safari/537.36 OPR/60.0.3255.170 (Edition Campaign 21",Desktop,28.23565,61.04668,Finland,Lappeenranta,Etela-Karjala,,ee-ip.org/articles,,www.ee-ip.org,0,0,0,,www.ee-ip.org/articles
Wework,1-877-796-2434,https://www.wework.com/,63.98.217.210,63.98.217.210,"2019-07-01 20:43:19","1600 * 900","5.0 (Windows NT 10.0; Win64; x64) AppleWebKit/537","Chrome/64.0.3282.140 Safari/537.36 Edge/17.17134",Desktop,-95.36769,29.75021,"United States",Houston,Texas,,ee-ip.org/events/detailed/6759996f66ae1654afb775f685da6657/iea-global-conference-on-energy-efficiency-2018,,www.bing.com,0,1,0,,"www.ee-ip.org/events/detailed/6759996f66ae1654afb775f685da6657/iea-global-conference-on-energy-efficiency-2018 --> www.ee-ip.org --> www.ee-ip.org/about --> www.ee-ip.org/articles --> www.ee-ip.org/nc/business-practices --> www.ee-ip.org/nc/business-practices --> www.ee-ip.org/events"
"Regus Business Centres Italia Srl","800 553730",http://www.regus.it/,134.62-14-84.ripe.coltfrance.com,84.14.62.134,"2019-07-01 17:45:12","1536 * 864","5.0 (Windows NT 10.0; Win64; x64) AppleWebKit/537","Chrome/75.0.3770.100 Safari/537.36 PTST/SpeedCurve/190626.190633",Desktop,9.192,45.472,Italy,Milano,Milano,,www2.ee-ip.org/content/CompanyPage/show/swep-international/file/439_ORC-systems_are_helping_to_create_a_sustainable_energy_future,,www.linkedin.com,0,1,0,,www.www2.ee-ip.org/content/CompanyPage/show/swep-international/file/439_ORC-systems_are_helping_to_create_a_sustainable_energy_future
"Wittenstein Se","""+49 7931 493-0""",https://www.wittenstein.de,194.25.164.29,194.25.164.29,"2019-07-01 15:19:47","2110 * 1187","5.0 (Windows NT 10.0; Win64; x64) AppleWebKit/537","Chrome/64.0.3282.140 Safari/537.36 Edge/17.17134",Desktop,8.496,49.009,Germany,Groetzingen,Baden-Wuerttemberg,,www2.ee-ip.org/content/CompanyPage/show/kownatzki-technology/file/232_Koennen_Planetenrollengetriebe_Hydraulik_ersetzen_,,www.google.de,0,1,0,,www.www2.ee-ip.org/content/CompanyPage/show/kownatzki-technology/file/232_Koennen_Planetenrollengetriebe_Hydraulik_ersetzen_
Brussels,,,iplus.orbem-bgda.be,195.244.164.245,"2019-07-01 15:15:33","1280 * 768","5.0 (Windows NT 6.1; Win64; x64) AppleWebKit/537.","Chrome/75.0.3770.100 Safari/537.36 PTST/SpeedCurve/190626.190633",Desktop,4.35249,50.84674,Belgium,Brussels,Brussels,,ee-ip.org,,,0,0,0,,www.ee-ip.org
"University Of Applied Sciences Hamburg","""+49.40.428 75-0 """,https://www.haw-hamburg.de,141.22.122.121,141.22.122.121,"2019-07-01 11:22:07","1920 * 1200","5.0 (X11)",Firefox,Desktop,10.0107,53.5583,Germany,Hamburg,Hamburg,,ee-ip.org,,,0,0,0,36,"www.ee-ip.org --> www.ee-ip.org/about --> www.ee-ip.org/legal-notices --> www.ee-ip.org"
"Amazon.Com, Inc.",206-266-1000,https://www.amazon.com/,ec2-18-220-161-185.us-east-2.compute.amazonaws.com,18.220.161.185,"2019-06-30 10:56:31","1366 * 768","5.0 (X11; Linux x86_64) AppleWebKit/537.36 (KHTML","Chrome/60.0.3112.50 Safari/537.36",Desktop,-82.99946,39.99558,"United States",Columbus,Ohio,,ee-ip.org,,,0,0,0,0,www.ee-ip.org
"University Of Applied Sciences Hamburg","""+49.40.428 75-0 """,https://www.haw-hamburg.de,141.22.122.163,141.22.122.163,"2019-06-28 13:37:07","1920 * 1200","5.0 (Windows)",Firefox,Desktop,10.0107,53.5583,Germany,Hamburg,Hamburg,,ee-ip.org,,www.google.com,0,1,0,16,"www.ee-ip.org --> www.ee-ip.org/about"
"Technical University Of Iasi",,,81.180.218.217,81.180.218.217,"2019-06-28 10:26:18","1477 * 923","5.0 (Windows NT 10.0; WOW64; Trident/7.0; .NET4.0",Firefox,Desktop,27.56644,47.16855,Romania,Iasi,Iasi,,ee-ip.org/articles/detailed/7a63d03adb027ab72323daa86bdbd98d/electric-vehicles-heat-pumps-electric-motors-play-a-crucial-role-in-the-energy-transition,,www.google.ro,0,1,0,0,www.ee-ip.org/articles/detailed/7a63d03adb027ab72323daa86bdbd98d/electric-vehicles-heat-pumps-electric-motors-play-a-crucial-role-in-the-energy-transition
"University Of Applied Sciences Hamburg","""+49.40.428 75-0 """,https://www.haw-hamburg.de,141.22.122.121,141.22.122.121,"2019-06-28 09:53:58","1920 * 1200","5.0 (X11)",Firefox,Desktop,10.0107,53.5583,Germany,Hamburg,Hamburg,,ee-ip.org,,www.google.com,0,1,0,1605,"www.ee-ip.org --> www.ee-ip.org"
"University Of The Witwatersrand",,wits.ac.za,146.141.14.170,146.141.14.170,"2019-06-27 19:53:24","1600 * 900","5.0 (Windows NT 10.0; Win64; x64) AppleWebKit/537","Chrome/74.0.3729.169 Safari/537.36",Desktop,28.05639,-26.19917,"South Africa",Johannesburg,Gauteng,,www2.ee-ip.org/content/CompanyPage/show/solvera-lynx/file/399_Energy_Management_System_in_steel_industry,,2llox.r.a.d.sendibm1.com,0,0,0,0,www.www2.ee-ip.org/content/CompanyPage/show/solvera-lynx/file/399_Energy_Management_System_in_steel_industry
"Upc Romania Aftr",,,78.96.83.102,78.96.83.102,"2019-06-27 18:43:01","1366 * 768","5.0 (Windows NT 10.0; Win64; x64) AppleWebKit/537","Chrome/74.0.3729.169 Safari/537.36",Desktop,26.09935,44.43655,Romania,Bucuresti,Bucuresti,,ee-ip.org/articles,,,0,0,0,3,"www.ee-ip.org/articles --> www.ee-ip.org/articles/detailed/628f0f1eee2e8315aa40601b5c379f3c/what-the-energy-efficiency-community-can-learn-from-the-club-of-rome"
"Doxa S.P.A.","""+39 02 4819 3320""",http://www.doxa.it/,213.86.211.130,213.86.211.130,"2019-06-27 18:38:54","1280 * 800","5.0 (Macintosh; Intel Mac OS X 10_14_5) AppleWebK","Chrome/75.0.3770.100 Safari/537.36 PTST/SpeedCurve/190626.190633",Mac,14.2352,40.8362,Italy,Napoli,Napoli,,ee-ip.org,,www.google.com,0,1,0,0,www.ee-ip.org
"Upc Romania Aftr",,,78.96.83.102,78.96.83.102,"2019-06-27 18:20:30","360 * 640","5.0 (Linux; Android 6.0; ALE-L21) AppleWebKit/537","Version/4.0 Chrome/75.0.3770.101 Mobile Safari/537.36 Instagram 99.0.0.32.182 Android (28/9; 480dpi; 1080x2139; HUAWEI; POT-LX1; HWPOT-H; kirin710; en_GB; 160497915",Mobile,26.09935,44.43655,Romania,Bucuresti,Bucuresti,,ee-ip.org/articles/detailed/628f0f1eee2e8315aa40601b5c379f3c/what-the-energy-efficiency-community-can-learn-from-the-club-of-rome,,,0,0,0,535,"www.ee-ip.org/articles/detailed/628f0f1eee2e8315aa40601b5c379f3c/what-the-energy-efficiency-community-can-learn-from-the-club-of-rome --> www.ee-ip.org/articles/detailed/628f0f1eee2e8315aa40601b5c379f3c/what-the-energy-efficiency-community-can-learn-from-the-club-of-rome"
"Ernst & Young Gmbh","""+49 6196 996 0""",http://www.ey.com,145.62.64.102,145.62.64.102,"2019-06-27 17:55:49","1290 * 726","5.0 (Windows NT 10.0; Win64; x64) AppleWebKit/537","Chrome/64.0.3282.140 Safari/537.36 Edge/17.17134",Desktop,7.22739,50.14529,Germany,Ernst,Rheinland-Pfalz,,ee-ip.org/articles/detailed/b97292b5e1a44315e76ff3c246b183f1/digital-transformation-of-energy-utilities-shifting-gears,,www.bing.com,0,1,0,0,www.ee-ip.org/articles/detailed/b97292b5e1a44315e76ff3c246b183f1/digital-transformation-of-energy-utilities-shifting-gears
"University Of Oxford","""+44 1865 270000""",http://www.ox.ac.uk/,ouce39-145.ouce.ox.ac.uk,163.1.39.145,"2019-06-27 16:28:04","1680 * 1050","5.0 (Windows)",Firefox,Desktop,-1.27556,51.75,"United Kingdom",Oxford,Oxfordshire,,ee-ip.org,,,0,0,0,3,"www.ee-ip.org --> www.ee-ip.org --> www.ee-ip.org"
"University Of Oxford","""+44 1865 270000""",http://www.ox.ac.uk/,ouce39-145.ouce.ox.ac.uk,163.1.39.145,"2019-06-27 16:28:04","1680 * 1050","5.0 (Windows)",Firefox,Desktop,-1.27556,51.75,"United Kingdom",Oxford,Oxfordshire,,ee-ip.org,,,0,0,0,0,www.ee-ip.org
"European Investment Bank","""+352 43 791""",http://www.eib.org/,193.168.41.60,193.168.41.60,"2019-06-27 15:09:35","1280 * 1024","5.0 (Windows NT 10.0; WOW64; Trident/7.0; .NET4.0",Firefox,Desktop,6.10624,49.61624,Luxembourg,Luxembourg,Luxembourg,,ee-ip.org/events/detailed/5d8db8f6b7b48c5c1bae69bc2a4ffbc3/2019-summer-study-on-energy-efficiency-in-industry-aceee,,2llox.r.a.d.sendibm1.com,0,0,0,0,www.ee-ip.org/events/detailed/5d8db8f6b7b48c5c1bae69bc2a4ffbc3/2019-summer-study-on-energy-efficiency-in-industry-aceee
"Technical Works Ludwigshafen Ag","0621-505 0",http://www.twl.de/,mail3.twl.de,217.151.157.2,"2019-06-27 14:43:18","1536 * 960","5.0 (Windows)",Firefox,Desktop,8.4258,49.4788,Germany,"Ludwigshafen Am Rhein",Rheinland-Pfalz,,ee-ip.org/articles/detailed/7a63d03adb027ab72323daa86bdbd98d/electric-vehicles-heat-pumps-electric-motors-play-a-crucial-role-in-the-energy-transition,,2llox.r.a.d.sendibm1.com,0,0,0,0,www.ee-ip.org/articles/detailed/7a63d03adb027ab72323daa86bdbd98d/electric-vehicles-heat-pumps-electric-motors-play-a-crucial-role-in-the-energy-transition
"Technical Works Ludwigshafen Ag","0621-505 0",http://www.twl.de/,mail3.twl.de,217.151.157.2,"2019-06-27 14:43:18","1536 * 960","5.0 (Windows)",Firefox,Desktop,8.4258,49.4788,Germany,"Ludwigshafen Am Rhein",Rheinland-Pfalz,,ee-ip.org/articles/detailed/7a63d03adb027ab72323daa86bdbd98d/electric-vehicles-heat-pumps-electric-motors-play-a-crucial-role-in-the-energy-transition,,2llox.r.a.d.sendibm1.com,0,0,0,0,www.ee-ip.org/articles/detailed/7a63d03adb027ab72323daa86bdbd98d/electric-vehicles-heat-pumps-electric-motors-play-a-crucial-role-in-the-energy-transition
"Technical Works Ludwigshafen Ag","0621-505 0",http://www.twl.de/,mail3.twl.de,217.151.157.2,"2019-06-27 14:43:18","1536 * 960","5.0 (Windows)",Firefox,Desktop,8.4258,49.4788,Germany,"Ludwigshafen Am Rhein",Rheinland-Pfalz,,ee-ip.org/articles/detailed/7a63d03adb027ab72323daa86bdbd98d/electric-vehicles-heat-pumps-electric-motors-play-a-crucial-role-in-the-energy-transition,,2llox.r.a.d.sendibm1.com,0,0,0,0,www.ee-ip.org/articles/detailed/7a63d03adb027ab72323daa86bdbd98d/electric-vehicles-heat-pumps-electric-motors-play-a-crucial-role-in-the-energy-transition
"Nb Power","1 800 663-6272",http://www.nbpower.com,155.3.252.250,155.3.252.250,"2019-06-27 14:14:43","1366 * 768","5.0 (Windows NT 6.1; Trident/7.0; SLCC2; .NET CLR",Firefox,Desktop,-66.64211,45.95664,Canada,Fredericton,"New Brunswick",,www2.ee-ip.org/contentmailing,,2llox.r.a.d.sendibm1.com,0,0,0,77,"www.www2.ee-ip.org/contentmailing --> www.www2.ee-ip.org/contentmailing"
"H4y Technologies Llc","866-435-5642 ",https://h4y.us/,67.21.32.80,67.21.32.80,"2019-06-27 14:10:27","1366 * 768","5.0 (Windows NT 10.0; WOW64) AppleWebKit/537.36 (","Chrome/73.0.3683.75 ADG/11.0.2319 Safari/537.36",Desktop,-80.5098,27.96705,"United States","Melbourne Beach",Florida,,www2.ee-ip.org/content/CompanyPage/show/european-copper-institute/file/320_10_Facts_about_Building_Automation,,2llox.r.a.d.sendibm1.com,0,0,0,0,www.www2.ee-ip.org/content/CompanyPage/show/european-copper-institute/file/320_10_Facts_about_Building_Automation
"European Investment Bank","""+352 43 791""",http://www.eib.org/,193.168.41.60,193.168.41.60,"2019-06-27 13:43:49","1920 * 1080","5.0 (Windows NT 10.0; WOW64; Trident/7.0; Touch; ",Firefox,Desktop,6.10624,49.61624,Luxembourg,Luxembourg,Luxembourg,,www2.ee-ip.org/content/CompanyPage/show/european-copper-institute/file/320_10_Facts_about_Building_Automation,,2llox.r.a.d.sendibm1.com,0,0,0,202,"www.www2.ee-ip.org/content/CompanyPage/show/european-copper-institute/file/320_10_Facts_about_Building_Automation --> www.ee-ip.org/articles/detailed/628f0f1eee2e8315aa40601b5c379f3c/what-the-energy-efficiency-community-can-learn-from-the-club-of-rome"
"Moscow Ring Railway","""+7 495 788-10-92""",http://mkzd.ru/,46.38.44.84.tel.ru,46.38.44.84,"2019-06-27 13:37:16","1280 * 720","5.0 (Windows)",Firefox,Desktop,37.6366,55.76441,"Russian Federation",Moskva,Moskva,,ee-ip.org/articles/detailed/7a63d03adb027ab72323daa86bdbd98d/electric-vehicles-heat-pumps-electric-motors-play-a-crucial-role-in-the-energy-transition,,2llox.r.a.d.sendibm1.com,0,0,0,0,www.ee-ip.org/articles/detailed/7a63d03adb027ab72323daa86bdbd98d/electric-vehicles-heat-pumps-electric-motors-play-a-crucial-role-in-the-energy-transition
"Universitat Jaume I",,,150.128.190.230,150.128.190.230,"2019-06-27 13:36:31","1440 * 900","5.0 (Windows NT 6.1; WOW64; Trident/7.0; SLCC2; .",Firefox,Desktop,-0.03849,39.98764,Spain,"Castellon De La Plana",Castellon,,ee-ip.org/articles/detailed/628f0f1eee2e8315aa40601b5c379f3c/what-the-energy-efficiency-community-can-learn-from-the-club-of-rome,,2llox.r.a.d.sendibm1.com,0,0,0,206,"www.ee-ip.org/articles/detailed/628f0f1eee2e8315aa40601b5c379f3c/what-the-energy-efficiency-community-can-learn-from-the-club-of-rome --> www.ee-ip.org/articles"
"Sc Carion Romania Sa","0264 407 501",http://www.carion.ro,108dial250.xnet.ro,213.233.108.250,"2019-06-27 13:34:37","412 * 846","5.0 (Linux; Android 9; SAMSUNG SM-G955F Build/PPR","SamsungBrowser/9.2 Chrome/67.0.3396.87 Mobile Safari/537.36",Mobile,26.09935,44.43655,Romania,Bucuresti,Bucuresti,,ee-ip.org/articles/detailed/628f0f1eee2e8315aa40601b5c379f3c/what-the-energy-efficiency-community-can-learn-from-the-club-of-rome,,2llox.r.a.d.sendibm1.com,0,0,0,0,www.ee-ip.org/articles/detailed/628f0f1eee2e8315aa40601b5c379f3c/what-the-energy-efficiency-community-can-learn-from-the-club-of-rome
"The Swiss Post Ag","""+41 848 888 888""",https://www.post.ch,217.193.194.6,217.193.194.6,"2019-06-26 19:12:32","1829 * 1143","5.0 (Windows NT 10.0; Win64; x64) AppleWebKit/537","Chrome/58.0.3029.110 Safari/537.36 Edge/16.16299",Desktop,7.45109,46.99832,Switzerland,Zollikofen,Bern,,www2.ee-ip.org/content/CompanyPage/show/batinew-sa,,www.google.com,0,1,0,124,"www.www2.ee-ip.org/content/CompanyPage/show/batinew-sa --> www.ee-ip.org --> www.www2.ee-ip.org/content/CompanyPage/show/batinew-sa"
"Cross Tab Marketing Services Pvt Ltd","""+91 22 4068 2822""",http://www.cross-tab.com,static-202.181.143.114-tataidc.co.in,114.143.181.202,"2019-06-26 16:28:41","1280 * 1024","5.0 (Windows NT 6.1) AppleWebKit/537.36 (KHTML, l","HeadlessChrome/75.0.3770.100 Safari/537.36",Desktop,72.8777,19.076,India,Mumbai,Maharashtra,,ee-ip.org/articles/detailed/34260b0b3988ea8db952bd0136a17120/glass-industry-16-emerging-technologies-for-energy-efficiency-and-ghg-emissions-reduction,,,0,0,0,0,www.ee-ip.org/articles/detailed/34260b0b3988ea8db952bd0136a17120/glass-industry-16-emerging-technologies-for-energy-efficiency-and-ghg-emissions-reduction
"Renewable Energies Hamburg","""+49 (0) 40 69 46 73 - 10""",https://www.erneuerbare-energien-hamburg.de,mail.eehh.de,212.12.56.190,"2019-06-26 11:22:06","1920 * 1200","5.0 (Windows)",Firefox,Desktop,10.0194,53.5481,Germany,Hamburg,Hamburg,,ee-ip.org,,www.google.com,0,1,0,0,www.ee-ip.org
"University Of Applied Sciences Hamburg","""+49.40.428 75-0 """,https://www.haw-hamburg.de,141.22.122.163,141.22.122.163,"2019-06-26 11:22:04","1920 * 1200","5.0 (Windows)",Firefox,Desktop,10.0107,53.5583,Germany,Hamburg,Hamburg,,ee-ip.org,,www.google.com,0,1,0,0,www.ee-ip.org
"Cross Tab Marketing Services Pvt Ltd","""+91 22 4068 2822""",http://www.cross-tab.com,static-202.181.143.114-tataidc.co.in,114.143.181.202,"2019-06-26 10:47:26","1366 * 768","5.0 (Windows NT 6.1; Win64; x64) AppleWebKit/537.","HeadlessChrome/75.0.3770.100 Safari/537.36",Desktop,72.8777,19.076,India,Mumbai,Maharashtra,,ee-ip.org/articles/detailed/34260b0b3988ea8db952bd0136a17120/glass-industry-16-emerging-technologies-for-energy-efficiency-and-ghg-emissions-reduction,,www.google.com,0,1,0,0,www.ee-ip.org/articles/detailed/34260b0b3988ea8db952bd0136a17120/glass-industry-16-emerging-technologies-for-energy-efficiency-and-ghg-emissions-reduction
"Kfw, Frankfurt","""+49 69 74310""",https://www.kfw.de/kfw.de.html,193.30.140.137,193.30.140.137,"2019-06-25 17:05:58","1920 * 1080","5.0 (Windows NT 6.1; WOW64; Trident/7.0; SLCC2; .",Firefox,Desktop,8.6577,50.1171,Germany,"Frankfurt Am Main",Darmstadt,,ee-ip.org,,www.bing.com,0,1,1,54,"www.ee-ip.org --> www.ee-ip.org/about --> www.ee-ip.org/about --> www.ee-ip.org/about --> www.ee-ip.org/about --> www.ee-ip.org/about --> www.ee-ip.org/partners"
"Universitat Politecnica De Valencia","""+34 96 387 70 00""",https://www.upv.es,edu241-94.wi-fi.upv.es,158.42.241.94,"2019-06-25 12:37:50","1920 * 1080","5.0 (Windows)",Firefox,Desktop,-0.38072,39.47418,Spain,Valencia,Valencia,,ee-ip.org,,www.google.com,0,1,0,0,www.ee-ip.org
"Universidade Do Porto",,up.pt,193.136.25.66,193.136.25.66,"2019-06-25 12:28:01","1920 * 1080","5.0 (Windows)",Firefox,Desktop,-8.61,41.15583,Portugal,Porto,Porto,,ee-ip.org/articles/detailed/628f0f1eee2e8315aa40601b5c379f3c/what-the-energy-efficiency-community-can-learn-from-the-club-of-rome,,www.ee-ip.org,0,0,0,1390,"www.ee-ip.org/articles/detailed/628f0f1eee2e8315aa40601b5c379f3c/what-the-energy-efficiency-community-can-learn-from-the-club-of-rome --> www.ee-ip.org/articles --> www.ee-ip.org/nc/business-practices --> www.ee-ip.org/articles/detailed/118b6fd8f841b469f817b35dbc32c344/more-than-ronaldo-how-5-innovative-portuguese-companies-drive-energy-efficiency --> www.www2.ee-ip.org/content/CompanyPage/show/solvera-lynx/file/401_Energy_Management_System_in_cement_industry --> www.ee-ip.org/about"
Altius,"""+32 2 426 14 14""",https://www.altius.com/,out.altius.com,213.181.50.55,"2019-06-25 09:36:21","1920 * 1080","5.0 (Windows NT 10.0; Win64; x64) AppleWebKit/537","HeadlessChrome/75.0.3770.100 Safari/537.36",Desktop,4.75789,50.43502,Belgium,Floreffe,Namur,,ee-ip.org/services,,incubators.brussels,0,0,0,4,"www.ee-ip.org/services --> www.ee-ip.org/about"
"Gestore Dei Servizi Energetici Gse S.P.A.","""+39 06.9292.8540""",https://www.gse.it,89-97-69-100.ip16.fastwebnet.it,89.97.69.100,"2019-06-25 09:05:05","1680 * 1050","5.0 (Windows NT 6.1; Win64; x64) AppleWebKit/537.","HeadlessChrome/75.0.3770.100 Safari/537.36",Desktop,12.3063,41.7755,Italy,Roma,Roma,,ee-ip.org/articles/detailed/fa42c6cf40438e1f6c04feda8bbf3984/green-aviation,,www.google.com,0,1,0,0,www.ee-ip.org/articles/detailed/fa42c6cf40438e1f6c04feda8bbf3984/green-aviation
"Alliant Techsystems Operations Llc","703 254 2454",http://www.atk.com/,tx22fwn-ext.orbitalatk.com,199.36.17.2,"2019-06-24 22:38:51","1920 * 1080","5.0 (Windows NT 10.0; Win64; x64) AppleWebKit/537","Chrome/70.0.3538.102 Safari/537.36",Desktop,-93.41123,44.91346,"United States",Hopkins,Minnesota,,ee-ip.org/articles/detailed/fa42c6cf40438e1f6c04feda8bbf3984/green-aviation,,www.google.com,0,1,0,0,www.ee-ip.org/articles/detailed/fa42c6cf40438e1f6c04feda8bbf3984/green-aviation
"Essensys Ltd","020 3102 5252",https://essensys.tech/,sharedmail5.essensys.co.uk,151.237.232.133,"2019-06-24 18:54:44","1366 * 768","5.0 (Macintosh; Intel Mac OS X 10_14_5) AppleWebK","Mobile/16C50 Version/12.1.1 Safari/605.1.15 (AirWatch Browser v7.3.1",Mac,0,51.51222,"United Kingdom",London,"Greater London","Aldgate Tower 7th Floor, 2 Leman Street, London, England, E1 8FA",ee-ip.org,,,0,0,0,0,www.ee-ip.org
"Province Of British Columbia",250-387-6121,http://www2.gov.bc.ca/,142.22.106.10,142.22.106.10,"2019-06-24 18:32:37","1920 * 1080","5.0 (Windows NT 10.0; WOW64) AppleWebKit/537.36 (","Chrome/74.0.3729.169 Safari/537.36",Desktop,-123.36897,48.45322,Canada,Victoria,"British Columbia",,www2.ee-ip.org/content/CompanyPage/show/yourenergy/file/305_Case_Study_of_Kermanshah_Petrochemical_Industries_Co_,,www.google.com,0,1,0,0,www.www2.ee-ip.org/content/CompanyPage/show/yourenergy/file/305_Case_Study_of_Kermanshah_Petrochemical_Industries_Co_
"Cewep E.V.","""+32 (0)2 770 63 11""",http://www.cewep.eu/,webmail.cewep.eu,91.183.8.10,"2019-06-24 18:07:26","1920 * 1080","5.0 (Windows NT 10.0; Win64; x64) AppleWebKit/537","HeadlessChrome/75.0.3770.100 Safari/537.36",Desktop,5.18666,50.81546,Belgium,Sint-Truiden,Limburg,,ee-ip.org,,,0,0,0,299,"www.ee-ip.org --> www.ee-ip.org --> www.ee-ip.org/events --> www.ee-ip.org/articles --> www.ee-ip.org/about --> www.ee-ip.org"
"Kunde & Co","""+45 3544 1200""",http://www.kunde.dk,195.184.115.220,195.184.115.220,"2019-06-24 17:15:19","1920 * 1080","5.0 (Macintosh; Intel Mac OS X 10_12_6) AppleWebK","Mobile/16C50 Version/12.1.1 Safari/605.1.15 (AirWatch Browser v7.3.1",Mac,12.58783,55.68051,Denmark,Kobenhavn,Hovedstaden,,ee-ip.org/magazine,,www.google.com,0,1,0,0,www.ee-ip.org/magazine
"European Investment Bank","""+352 43 791""",http://www.eib.org/,193.168.41.60,193.168.41.60,"2019-06-24 17:13:35","1920 * 1080","5.0 (Windows NT 10.0; WOW64; Trident/7.0; .NET4.0",Firefox,Desktop,6.10624,49.61624,Luxembourg,Luxembourg,Luxembourg,,ee-ip.org/articles/detailed/999325585c33f81f2b421390498a8124/energy-audit-in-smes-could-unlock-great-energy-efficiency-potential-in-europe-a-focus-on-the-italia,,www.google.com,0,1,0,0,www.ee-ip.org/articles/detailed/999325585c33f81f2b421390498a8124/energy-audit-in-smes-could-unlock-great-energy-efficiency-potential-in-europe-a-focus-on-the-italia
"Jarden Home Brands",1-800-240-3340,http://www.jardenhomebrands.com/,12.175.233.51,12.175.233.51,"2019-06-24 15:42:37","1920 * 1080","5.0 (Windows NT 6.1; WOW64; Trident/7.0; SLCC2; .",Firefox,Desktop,-85.991942,39.963851,"United States",Fishers,"Hamilton County",,ee-ip.org/articles/detailed/c4a9bce1728be9d76641b9b9f01530fa/farewell-to-traditional-compressor-based-refrigeration,,www.google.com,0,1,1,0,www.ee-ip.org/articles/detailed/c4a9bce1728be9d76641b9b9f01530fa/farewell-to-traditional-compressor-based-refrigeration
"Dtu Danish Technical University",,dtu.dk,dtu-czc6268ck5.win.dtu.dk,130.226.22.80,"2019-06-24 15:09:47","1920 * 1200","5.0 (Windows NT 10.0; Win64; x64) AppleWebKit/537","HeadlessChrome/75.0.3770.100 Safari/537.36",Desktop,12.4949,55.7635,Denmark,"Kongens Lyngby",Hovedstaden,,ee-ip.org/articles/detailed/4f4b42dca867849009fa2064b0b91c78/utilities-large-missed-opportunity-demand-response-in-manufacturing,,www.google.dk,0,1,0,0,www.ee-ip.org/articles/detailed/4f4b42dca867849009fa2064b0b91c78/utilities-large-missed-opportunity-demand-response-in-manufacturing
"Bilfinger Vam Anlagentechnik Gmbh","""+43 7242 4060""",http://www.vam.bilfinger.com/,80.243.175.180,80.243.175.180,"2019-06-24 12:24:57","1920 * 1080","5.0 (Windows NT 6.1; WOW64; Trident/7.0; SLCC2; .",Firefox,Desktop,14.02462,48.15665,Austria,Wels,Oberoesterreich,,ee-ip.org/articles/detailed/bd3568515e538ad350faf063915c6141/heatpumps-vision-vs-reality,,,0,0,0,0,www.ee-ip.org/articles/detailed/bd3568515e538ad350faf063915c6141/heatpumps-vision-vs-reality
"Electricity Generating Authority Of Thailand (Egat)","""+66 2 1416""",http://www.egat.co.th/,182.255.9.66,182.255.9.66,"2019-06-24 10:41:55","1920 * 1200","5.0 (Windows NT 10.0; Win64; x64) AppleWebKit/537","Chrome/74.0.3729.169 Safari/537.36",Desktop,100.45,13.81,Thailand,"Bang Kruai",Nonthaburi,,ee-ip.org/articles/detailed/7a63d03adb027ab72323daa86bdbd98d/electric-vehicles-heat-pumps-electric-motors-play-a-crucial-role-in-the-energy-transition,,www.google.com,0,1,0,0,www.ee-ip.org/articles/detailed/7a63d03adb027ab72323daa86bdbd98d/electric-vehicles-heat-pumps-electric-motors-play-a-crucial-role-in-the-energy-transition
"Justsen Energiteknik A/S","""+45 8626 0500""",https://justsen.dk/,mail.justsen.dk,80.196.52.22,"2019-06-24 09:40:51","2327 * 1309","5.0 (Windows NT 10.0; Win64; x64) AppleWebKit/537","Chrome/64.0.3282.140 Safari/537.36 Edge/17.17134",Desktop,8.7995,55.4728,Denmark,Gording,Syddanmark,,ee-ip.org/articles/detailed/597c40b4f191d141b0905cff80768f39/is-an-energy-revolution-underway-in-chile,,www.google.com,0,1,0,0,www.ee-ip.org/articles/detailed/597c40b4f191d141b0905cff80768f39/is-an-energy-revolution-underway-in-chile
"Metro Cash And Carry India",1860-266-2010,https://www.metro.co.in,171.49.250.51,171.49.250.51,"2019-06-24 06:40:33","1366 * 768","5.0 (Windows NT 10.0; Win64; x64) AppleWebKit/537","HeadlessChrome/75.0.3770.100 Safari/537.36",Desktop,78.4867,17.385,India,Hyderabad,Telangana,,www2.ee-ip.org/content/CompanyPage/show/pepite-sa/file/155_Case_study_cement_industry:_increased_fuel_efficiency,,www.google.co.in,0,1,0,0,www.www2.ee-ip.org/content/CompanyPage/show/pepite-sa/file/155_Case_study_cement_industry:_increased_fuel_efficiency
"Chicago Vps",,,192-210-186-147-host.colocrossing.com,192.210.186.147,"2019-06-23 12:35:56","1600 * 800","5.0 (Windows NT 10.0; Win64; x64) AppleWebKit/537","Chrome/65.0.3391.146 Safari/537.36 OPR/55.0.3452.46",Desktop,-87.99496,42.01187,"United States","Elk Grove Village",Illinois,,ee-ip.org/events,,,0,0,0,0,www.ee-ip.org/events
"King County Gov","206 296 0100",http://www.kingcounty.gov,hubsab1.kingcounty.gov,198.49.222.20,"2019-06-22 00:42:18","1366 * 768","5.0 (Windows)",Firefox,Desktop,-122.17309,47.62007,"United States",Bellevue,Washington,,ee-ip.org/articles/detailed/e3856df40e2342fa6e02d4d5d9e11afe/utilize-all-the-available-energy-heat-recovery,,www.google.com,0,1,0,18,"www.ee-ip.org/articles/detailed/e3856df40e2342fa6e02d4d5d9e11afe/utilize-all-the-available-energy-heat-recovery --> www.ee-ip.org/partners --> www.ee-ip.org"
"Terna Group","""+39 06 8313 8111 """,http://www.terna.it/,193.108.204.23,193.108.204.23,"2019-06-21 16:45:02","1920 * 1080","5.0 (Windows NT 10.0; WOW64) AppleWebKit/537.36 (","HeadlessChrome/75.0.3770.100 Safari/537.36",Desktop,8.05024,45.00109,Italy,Viale,Asti,,ee-ip.org/articles/detailed/1f94823dd90fe3a2b15e3b8f992c2d96/local-energy-aggregation-similarities-between-the-italian-hera-group-and-the-community-choice-energ,,www.google.com,0,1,0,0,www.ee-ip.org/articles/detailed/1f94823dd90fe3a2b15e3b8f992c2d96/local-energy-aggregation-similarities-between-the-italian-hera-group-and-the-community-choice-energ
"Universidade Do Porto",,up.pt,193.136.25.66,193.136.25.66,"2019-06-21 15:05:41","1920 * 1080","5.0 (Windows)",Firefox,Desktop,-8.61,41.15583,Portugal,Porto,Porto,,ee-ip.org/about,,www.google.com,0,1,0,20,"www.ee-ip.org/about --> www.ee-ip.org --> www.ee-ip.org/articles/detailed/628f0f1eee2e8315aa40601b5c379f3c/what-the-energy-efficiency-community-can-learn-from-the-club-of-rome"
"Essensys Ltd","020 3102 5252",https://essensys.tech/,sharedmail5.essensys.co.uk,151.237.232.133,"2019-06-21 14:13:36","1366 * 768","5.0 (Macintosh; Intel Mac OS X 10_14_5) AppleWebK","Mobile/16C50 Version/12.1.1 Safari/605.1.15 (AirWatch Browser v7.3.1",Mac,0,51.51222,"United Kingdom",London,"Greater London","Aldgate Tower 7th Floor, 2 Leman Street, London, England, E1 8FA",ee-ip.org,,,0,0,0,1998,"www.ee-ip.org --> www.ee-ip.org"
"Universite De Geneve",,,129.194.172.241,129.194.172.241,"2019-06-21 14:08:52","1920 * 1080","5.0 (Windows)",Firefox,Desktop,6.13993,46.20382,Switzerland,Geneve,Geneve,,ee-ip.org/articles/detailed/7cc969ab93f80c76a54ecc339c544ae9/turkey-industrial-energy-efficiency-strategy,,www.google.com,0,1,0,0,www.ee-ip.org/articles/detailed/7cc969ab93f80c76a54ecc339c544ae9/turkey-industrial-energy-efficiency-strategy
"Germany Trade And Invest Gmbh","""+49 30 2000990""",http://www.gtai.de,178.15.35.100,178.15.35.100,"2019-06-21 12:44:13","1920 * 1080","5.0 (Windows)",Firefox,Desktop,13.388,52.5155,Germany,Berlin-Mitte,Berlin,,ee-ip.org,,www.ecosia.org,0,0,0,13,"www.ee-ip.org --> www.ee-ip.org/articles/detailed/628f0f1eee2e8315aa40601b5c379f3c/what-the-energy-efficiency-community-can-learn-from-the-club-of-rome"
"Ifmr Rural Channels And S","""+91 44 6668 7000""",http://ruralchannels.ifmr.co.in/,nsg-static-34.130.75.182-airtel.com,182.75.130.34,"2019-06-21 09:06:26","1366 * 768","5.0 (Windows NT 6.1) AppleWebKit/537.36 (KHTML, l","Chrome/68.0.3440.106 Safari/537.36 PTST/180813.150843",Desktop,84.78031,19.11401,India,Nuralrevu,Odisha,,ee-ip.org/articles/detailed/feb76d3e75da0b5aa4f06920ecdfbb1b/iot-equipped-led-lighting-systems-enhance-energy-efficiency,,www.google.com,0,1,0,5314,"www.ee-ip.org/articles/detailed/feb76d3e75da0b5aa4f06920ecdfbb1b/iot-equipped-led-lighting-systems-enhance-energy-efficiency --> www.ee-ip.org/articles/detailed/feb76d3e75da0b5aa4f06920ecdfbb1b/iot-equipped-led-lighting-systems-enhance-energy-efficiency"
Jbs,970.506.8000,http://jbssa.com,198.58.15.254,198.58.15.254,"2019-06-20 20:29:26","1600 * 900","5.0 (Windows NT 10.0; Win64; x64) AppleWebKit/537","Chrome/73.0.3683.75 Safari/537.36",Desktop,-104.79278,40.39282,"United States",Greeley,Colorado,,ee-ip.org/articles/detailed/1e5b82080686ae02120cc4a9400ac380/the-4th-utility-compressed-air,,www.google.com,0,1,0,0,www.ee-ip.org/articles/detailed/1e5b82080686ae02120cc4a9400ac380/the-4th-utility-compressed-air
"Mckinsey & Company","""+91 (44) 6641 3000""",http://www.mckinsey.com,157.191.66.52,157.191.66.52,"2019-06-20 18:39:45","1280 * 720","5.0 (Windows NT 10.0; Win64; x64) AppleWebKit/537","Chrome/74.0.3729.169 Safari/537.36",Desktop,-73.97902,40.75891,"United States","New York","New York",,ee-ip.org/articles/detailed/4f4b42dca867849009fa2064b0b91c78/utilities-large-missed-opportunity-demand-response-in-manufacturing,,www.google.com,0,1,0,0,www.ee-ip.org/articles/detailed/4f4b42dca867849009fa2064b0b91c78/utilities-large-missed-opportunity-demand-response-in-manufacturing
"Commission Europeenne","""+352 4301 34925""",http://ec.europa.eu,147.67.4.98,147.67.4.98,"2019-06-20 15:35:16","412 * 892","5.0 (Linux; Android 9; ONEPLUS A6013) AppleWebKit","Version/4.0 Chrome/75.0.3770.89 Mobile Safari/537.36 Instagram 97.0.0.32.119 Android (28/9; 420dpi; 1080x1794; Google/google; Pixel 2; walleye; walleye; en_US; 158441917",Mobile,6.10624,49.61624,Luxembourg,Luxembourg,Luxembourg,,ee-ip.org,,www.google.com,0,1,0,79,"www.ee-ip.org --> www.ee-ip.org/about --> www.ee-ip.org/partners --> www.ee-ip.org/about --> www.ee-ip.org"
"Boliden Group","""+ 46 8 610 15 00""",http://www.boliden.com/,gw.boliden.com,195.67.21.7,"2019-06-20 12:23:32","1680 * 1050","5.0 (Windows NT 10.0; Win64; x64) AppleWebKit/537","HeadlessChrome/75.0.3770.100 Safari/537.36",Desktop,20.38654,64.86294,Sweden,Boliden,"Vasterbottens Lan",,ee-ip.org/articles/detailed/8fd9a854a34a274a25827f6380b8dd60/whats-next-for-industrial-energy-efficiency,,www.google.com,0,1,0,0,www.ee-ip.org/articles/detailed/8fd9a854a34a274a25827f6380b8dd60/whats-next-for-industrial-energy-efficiency
"United Technologies Research Center","""+1 860-610-7000""",http://www.utrc.utc.com/,192.249.41.20,192.249.41.20,"2019-06-20 08:20:04","1366 * 768","5.0 (Windows NT 10.0; Win64; x64) AppleWebKit/537","Chrome/74.0.3729.169 Safari/537.36",Desktop,103.8198,1.32,Singapore,Singapore,None,,ee-ip.org/articles/detailed/34797d22b9f922980cdcc13e3cd53771/21st-century-energy-management,,www.google.com,0,1,0,0,www.ee-ip.org/articles/detailed/34797d22b9f922980cdcc13e3cd53771/21st-century-energy-management
"Northwestern University",,northwestern.edu,dhcp-129-105-62-242.econ.northwestern.edu,129.105.62.242,"2019-06-19 22:15:44","2560 * 1440","5.0 (Macintosh; Intel Mac OS X 10_13_4) AppleWebK","Chrome/74.0.3729.169 Safari/537.36",Mac,-87.67432,42.05586,"United States",Evanston,Illinois,,ee-ip.org/articles/detailed/597c40b4f191d141b0905cff80768f39/is-an-energy-revolution-underway-in-chile,,www.google.com,0,1,0,0,www.ee-ip.org/articles/detailed/597c40b4f191d141b0905cff80768f39/is-an-energy-revolution-underway-in-chile
"University Of New Brunswick",,,131.202.192.167,131.202.192.167,"2019-06-19 19:41:49","1440 * 900","5.0 (Macintosh; Intel Mac OS X 10_13_6) AppleWebK","Chrome/74.0.3729.169 Safari/537.36",Mac,-66.644571,45.9634168,Canada,Fredericton,"York County",,ee-ip.org/partners,,www.ee-ip.org,0,0,1,2224,"www.ee-ip.org/partners --> www.ee-ip.org --> www.ee-ip.org/services --> www.ee-ip.org/partners --> www.ee-ip.org/about --> www.ee-ip.org --> www.ee-ip.org/about"
"Commission Europeenne","""+352 4301 34925""",http://ec.europa.eu,147.67.4.98,147.67.4.98,"2019-06-19 18:23:17","1280 * 720","5.0 (Windows)",Firefox,Desktop,6.10624,49.61624,Luxembourg,Luxembourg,Luxembourg,,ee-ip.org,,,0,0,0,25,"www.ee-ip.org --> www.ee-ip.org/about --> www.ee-ip.org/nc/business-practices"
Adelphi,"""+49 (89) 232596-05""",https://www.adelphi.de/,mail.adelphi.de,213.61.111.222,"2019-06-19 16:40:27","1920 * 1080","5.0 (Windows NT 10.0; Win64; x64) AppleWebKit/537","Chrome/64.0.3282.140 Safari/537.36 Edge/17.17134",Desktop,11.5729,48.1362,Germany,Muenchen,Bayern,,ee-ip.org/events/detailed/fcd0540042ad4336d968a1d787228f87/g20-global-summit-on-financing-energy-efficiency-innovation-and-clean-technology,,www.bing.com,0,1,0,0,www.ee-ip.org/events/detailed/fcd0540042ad4336d968a1d787228f87/g20-global-summit-on-financing-energy-efficiency-innovation-and-clean-technology
"Flexim Flexible IndustriemeÃtechnik Gmbh","""+49 (0)30 936 676 60""",https://www.flexim.com,178.15.35.146,178.15.35.146,"2019-06-19 15:30:21","1920 * 1080","5.0 (Windows NT 6.1; Win64; x64) AppleWebKit/537.","Chrome/73.0.3683.103 Safari/537.36 OPR/60.0.3255.170",Desktop,13.536,52.539,Germany,Marzahn,Berlin,,www2.ee-ip.org/content/CompanyPage/show/norsk-energi/file/107_Energy_Recovery:_Reference_project_Finnfjord,,www.linkedin.com,0,1,0,0,www.www2.ee-ip.org/content/CompanyPage/show/norsk-energi/file/107_Energy_Recovery:_Reference_project_Finnfjord
"Potsdam Institute For Climate Impact Research (Pik) E. V.","""+49 331 288-2500""",https://www.pik-potsdam.de/,host18133.pik-potsdam.de,193.174.18.133,"2019-06-19 15:16:22","1440 * 900","5.0 (Macintosh)",Firefox,Mac,13.10641,52.39407,Germany,Potsdam,Brandenburg,,ee-ip.org/articles/detailed/628f0f1eee2e8315aa40601b5c379f3c/what-the-energy-efficiency-community-can-learn-from-the-club-of-rome,,,0,0,0,0,www.ee-ip.org/articles/detailed/628f0f1eee2e8315aa40601b5c379f3c/what-the-energy-efficiency-community-can-learn-from-the-club-of-rome
"Commission Europeenne","""+352 4301 34925""",http://ec.europa.eu,147.67.4.98,147.67.4.98,"2019-06-19 14:24:00","412 * 846","5.0 (Linux; Android 9; SAMSUNG SM-A750FN/A750FNXX","SamsungBrowser/9.2 Chrome/67.0.3396.87 Mobile Safari/537.36",Mobile,6.10624,49.61624,Luxembourg,Luxembourg,Luxembourg,,ee-ip.org/articles/detailed/8c9a196e2fef8fe8433f4dfbca0cee3a/icp-partners-made-it,,,0,0,0,0,www.ee-ip.org/articles/detailed/8c9a196e2fef8fe8433f4dfbca0cee3a/icp-partners-made-it
"Alma Mater Studiorum Universita  Di Bologna",,,137.204.150.20,137.204.150.20,"2019-06-19 12:00:58","1366 * 768","5.0 (Macintosh; Intel Mac OS X 10_11_6) AppleWebK","Version/11.1.2 Safari/605.1.15",Mac,11.352034452658,44.497357590255,Italy,Bologna,"CittÃ  Metropolitana Di Bologna",,ee-ip.org/articles/detailed/9b6b4c4efe5d97fd26896c14fd806f21/new-utility-business-model-leverage-customer-base,,www.google.com,0,1,1,251,"www.ee-ip.org/articles/detailed/9b6b4c4efe5d97fd26896c14fd806f21/new-utility-business-model-leverage-customer-base --> www.ee-ip.org/articles/detailed/3fbfb84db1e6e10b4c471d07e6f2fe37/heres-how-european-energy-companies-see-the-near-future"
"Classen Apparatebau Wiesloch Gmbh",""" +49 (0) 6222 5726 0""",http://www.caw-wiesloch.de,mail.caw-wiesloch.de,37.228.140.199,"2019-06-19 11:25:53","1680 * 1050","5.0 (Windows)",Firefox,Desktop,8.597,49.267,Germany,"Sankt Leon",Baden-Wuerttemberg,,www2.ee-ip.org/content/CompanyPage/show/turboden-srl/file/96_ORC_Plants_for_Industrial_Heat_Recovery,,,0,0,0,0,www.www2.ee-ip.org/content/CompanyPage/show/turboden-srl/file/96_ORC_Plants_for_Industrial_Heat_Recovery
"Crio Inversiones",(503)2243.4139,http://crio.com.sv/,190.120.22.75,190.120.22.75,"2019-06-18 22:31:22","1366 * 768","5.0 (Windows NT 6.1; Win64; x64) AppleWebKit/537.","Chrome/74.0.3729.169 Safari/537.36",Desktop,-89.23306,13.77972,"El Salvador","San Salvador","San Salvador",,ee-ip.org/articles/detailed/7a63d03adb027ab72323daa86bdbd98d/electric-vehicles-heat-pumps-electric-motors-play-a-crucial-role-in-the-energy-transition,,www.google.com.sv,0,1,0,0,www.ee-ip.org/articles/detailed/7a63d03adb027ab72323daa86bdbd98d/electric-vehicles-heat-pumps-electric-motors-play-a-crucial-role-in-the-energy-transition
Deloitte,""" +48 (22) 511 08 11""",https://www2.deloitte.com/,82.177.11.2,82.177.11.2,"2019-06-18 16:00:23","1280 * 720","5.0 (Windows NT 10.0; Win64; x64) AppleWebKit/537","Chrome/74.0.3729.169 Safari/537.36",Desktop,21.01967,52.2239,Poland,Warszawa,Mazowieckie,,ee-ip.org/articles/detailed/7613a0866ce8b0521f89a3afac2c860d/what-the-eu-winter-package-means-for-industry,,www.google.com,0,1,0,0,www.ee-ip.org/articles/detailed/7613a0866ce8b0521f89a3afac2c860d/what-the-eu-winter-package-means-for-industry
"Chesterfield College",,chesterfield.ac.uk,pix.chesterfield.ac.uk,194.82.143.251,"2019-06-18 14:16:51","1920 * 1080","5.0 (Windows NT 6.1; Win64; x64) AppleWebKit/537.","Chrome/74.0.3729.169 Safari/537.36",Desktop,-1.4303757,53.2416759,"United Kingdom",Chesterfield,Derbyshire,,ee-ip.org/articles/detailed/fc2366a289df3f830da0810bf9fb3f91/optimizing-electrical-motor-efficiency-get-more-bang-for-your-buck,,www.google.co.uk,0,1,1,0,www.ee-ip.org/articles/detailed/fc2366a289df3f830da0810bf9fb3f91/optimizing-electrical-motor-efficiency-get-more-bang-for-your-buck
"Intelium Corp.",847-901-3019,http://www.intelium.com/,104.192.74.210,104.192.74.210,"2019-06-18 13:46:16","800 * 600","5.0 (X11; Linux x86_64) AppleWebKit/537.36 (KHTML","HeadlessChrome/70.0.3538.77 Safari/537.36",Desktop,-87.82326,42.08015,"United States",Glenview,Illinois,,ee-ip.org,,,0,0,0,113,"www.ee-ip.org --> www.www2.ee-ip.org/content/CompanyPage/show/european-copper-institute/file/325_10_Facts_about_Energy_Management --> www.ee-ip.org/nc/business-practices --> www.ee-ip.org/services --> www.www2.ee-ip.org/content/CompanyPage/show/swep-international/file/439_ORC-systems_are_helping_to_create_a_sustainable_energy_future --> www.www2.ee-ip.org/contentmailing --> www.www2.ee-ip.org/content/CompanyPage/show/european-copper-institute/file/296_Behind-the-Meter_Energy_Storage_Systems --> www.www2.ee-ip.org/content/CompanyPage/show/swep-international/file/435_Shining_a_light_on_Tomatoes --> www.ee-ip.org/articles --> www.ee-ip.org/events --> www.ee-ip.org/articles/detailed/5744e330c75634733f10ed7a0b23a649/simply-not-enough --> www.ee-ip.org/events/detailed/ce442cf8460d8d2bd1ae6035141f878e/eu-sustainable-energy-week-2019 --> www.ee-ip.org/newsletter --> www.ee-ip.org/legal-notices --> www.ee-ip.org/articles/detailed/118b6fd8f841b469f817b35dbc32c344/more-than-ronaldo-how-5-innovative-portuguese-companies-drive-energy-efficiency --> www.ee-ip.org/about --> www.ee-ip.org/privacy --> www.ee-ip.org/articles/detailed/766fbf5ef63d886ae86f52d0bb7dd2ab/message-to-the-investor-community-be-that-bridge-over-troubled-water --> www.ee-ip.org/articles/detailed/add4074d8ed903b257db63c17278173a/risk-minimization-for-energy-efficiency-projects --> www.ee-ip.org/events/detailed/b8f8c19e99297b0582f99a931018720a/investor-days-workshop-in-london-the-11th-of-september-2018 --> www.ee-ip.org/articles/detailed/c0074da70f54337de17e9c0fa27bbcde/youve-got-a-friend"
"Flexim Flexible IndustriemeÃtechnik Gmbh","""+49 (0)30 936 676 60""",https://www.flexim.com,178.15.35.146,178.15.35.146,"2019-06-18 11:18:51","1920 * 1080","5.0 (Windows NT 6.1; Win64; x64) AppleWebKit/537.","Chrome/73.0.3683.103 Safari/537.36 OPR/60.0.3255.170",Desktop,13.536,52.539,Germany,Marzahn,Berlin,,www2.ee-ip.org/content/CompanyPage/show/norsk-energi/file/101_Energy_Management_-_Step_by_Step,,,0,0,0,0,www.www2.ee-ip.org/content/CompanyPage/show/norsk-energi/file/101_Energy_Management_-_Step_by_Step
"Fraunhofer Gesellschaft Zur Foerderung Der Angewandten Forschung Ev","""+49 89 1205 0 """,https://www.fraunhofer.de,client-252-1-233-129.ipa.fraunhofer.de,129.233.1.252,"2019-06-18 11:18:31","1920 * 1080","5.0 (Windows NT 10.0; Win64; x64) AppleWebKit/537","Chrome/64.0.3282.140 Safari/537.36 Edge/17.17134",Desktop,9.1818,48.7754,Germany,Stuttgart,Baden-Wuerttemberg,,ee-ip.org/articles/detailed/df337947f1ec90e3b8c0a43af4fcf2fa/top-3-articles-in-energy-efficiency-fom-the-2nd-quarter-of-2018,,,0,0,0,0,www.ee-ip.org/articles/detailed/df337947f1ec90e3b8c0a43af4fcf2fa/top-3-articles-in-energy-efficiency-fom-the-2nd-quarter-of-2018
"Capgemini France Sas","33 149 673 000",https://www.fr.capgemini.com/,193.57.249.1,193.57.249.1,"2019-06-18 10:51:51","1280 * 720","5.0 (Windows NT 10.0; Win64; x64) AppleWebKit/537","Chrome/74.0.3729.169 Safari/537.36",Desktop,2.34107,48.86023,France,Paris,Paris,,ee-ip.org/articles/detailed/6640bb0e4577f612ae97c07ac211429f/does-vr-work-for-energy-efficiency-markets-a-review-of-the-vr-presentation-of-the-investor-confiden,,www.google.com,0,1,0,0,www.ee-ip.org/articles/detailed/6640bb0e4577f612ae97c07ac211429f/does-vr-work-for-energy-efficiency-markets-a-review-of-the-vr-presentation-of-the-investor-confiden
"Reliable Detail","8 (800) 511-59-41",https://ndetal.com/,mail.ndetal.com,217.79.13.46,"2019-06-18 10:41:02","1920 * 1080","5.0 (Windows NT 10.0; Win64; x64) AppleWebKit/537","Chrome/75.0.3770.90 Safari/537.36",Desktop,30.31579,59.93904,"Russian Federation",Sankt-Peterburg,Sankt-Peterburg,,ee-ip.org/articles/detailed/b97292b5e1a44315e76ff3c246b183f1/digital-transformation-of-energy-utilities-shifting-gears,,www.google.ru,0,1,0,0,www.ee-ip.org/articles/detailed/b97292b5e1a44315e76ff3c246b183f1/digital-transformation-of-energy-utilities-shifting-gears
"Vienna Airport","""+43-1-7007-â0""",http://www.viennaairport.com/,193.43.158.229,193.43.158.229,"2019-06-18 09:55:31","1280 * 720","5.0 (Windows NT 10.0; Win64; x64) AppleWebKit/537","Chrome/74.0.3729.169 Safari/537.36",Desktop,16.37417,48.20861,Austria,Wien,Wien,,ee-ip.org/articles/detailed/e2c73f35562b71f56c9b3a5a03782ef8/cleantech-startups-german-utilities-bridging-the-valley-of-death,,www.google.com,0,1,0,0,www.ee-ip.org/articles/detailed/e2c73f35562b71f56c9b3a5a03782ef8/cleantech-startups-german-utilities-bridging-the-valley-of-death
"Sij Acroni Doo","""+386 4 584 10 00""",http://sij.acroni.si,193.189.185.113,193.189.185.113,"2019-06-18 09:47:27","1920 * 1080","5.0 (Windows NT 10.0; WOW64; Trident/7.0; .NET4.0",Firefox,Desktop,14.50597,46.05143,Slovenia,Ljubljana,Ljubljana,,www2.ee-ip.org/content/CompanyPage/show/swep-international/file/433_Rank_Organic_Rankine_Cycle_Technology_with_applications_in_Heat_Recovery_solution,,,0,0,0,0,www.www2.ee-ip.org/content/CompanyPage/show/swep-international/file/433_Rank_Organic_Rankine_Cycle_Technology_with_applications_in_Heat_Recovery_solution
"A Niemi Engineering Oy","""+358 40 5147 719""",http://www.niemiengineering.fi/,62-165-140-193.co.dnainternet.fi,62.165.140.193,"2019-06-18 07:28:04","1680 * 1050","5.0 (Windows NT 10.0; Win64; x64) AppleWebKit/537","Chrome/73.0.3683.103 Safari/537.36 OPR/60.0.3255.151",Desktop,28.23565,61.04668,Finland,Lappeenranta,Etela-Karjala,,ee-ip.org/articles,,www.ee-ip.org,0,0,0,0,www.ee-ip.org/articles
"Aker Brattvaag","""+47 24 13 00 00""",ttps://www.akerasa.com/,213.184.192.162,213.184.192.162,"2019-06-17 21:14:28","1920 * 1080","5.0 (Windows NT 6.1; Win64; x64) AppleWebKit/537.","Chrome/74.0.3729.169 Safari/537.36",Desktop,6.19041,62.4771,Norway,Alesund,"More Og Romsdal",,www2.ee-ip.org/content/CompanyPage/show/norsk-energi/file/101_Energy_Management_-_Step_by_Step,,,0,0,0,867,"www.www2.ee-ip.org/content/CompanyPage/show/norsk-energi/file/101_Energy_Management_-_Step_by_Step --> www.ee-ip.org/articles --> www.ee-ip.org/articles/detailed/7a63d03adb027ab72323daa86bdbd98d/electric-vehicles-heat-pumps-electric-motors-play-a-crucial-role-in-the-energy-transition --> www.ee-ip.org/about --> www.ee-ip.org/nc/business-practices --> www.ee-ip.org/about --> www.ee-ip.org/services --> www.ee-ip.org/about --> www.ee-ip.org/partners --> www.ee-ip.org/events"
Circe,"""+34 976 97 68 59""",http://www.fcirce.es/,195.77.36.225,195.77.36.225,"2019-06-17 18:03:50","1920 * 1080","5.0 (Windows NT 10.0; Win64; x64) AppleWebKit/537","Chrome/74.0.3729.169 Safari/537.36",Desktop,1.99794,41.59386,Spain,Terrassa,Barcelona,,ee-ip.org,,www.google.com,0,1,0,30,"www.ee-ip.org --> www.ee-ip.org/about --> www.ee-ip.org/articles"
"Petrol Group","""+ 386 1 47 14 234""",www.petrol.eu/,193.77.161.11,193.77.161.11,"2019-06-17 15:41:15","1920 * 1080","5.0 (Windows NT 10.0; Win64; x64) AppleWebKit/537","Chrome/74.0.3729.169 Safari/537.36",Desktop,14.50597,46.05143,Slovenia,Ljubljana,Ljubljana,,ee-ip.org/articles/detailed/8c9a196e2fef8fe8433f4dfbca0cee3a/icp-partners-made-it,,www.linkedin.com,0,1,0,0,www.ee-ip.org/articles/detailed/8c9a196e2fef8fe8433f4dfbca0cee3a/icp-partners-made-it
"Universitat Politecnica De Valencia","""+34 96 387 70 00""",https://www.upv.es,edu241-106.wi-fi.upv.es,158.42.241.106,"2019-06-17 09:01:31","1920 * 1080","5.0 (Windows)",Firefox,Desktop,-0.38072,39.47418,Spain,Valencia,Valencia,,ee-ip.org,,www.google.com,0,1,0,8,"www.ee-ip.org --> www.ee-ip.org/about"
"Korea University",,korea.ac.kr,163.152.55.129,163.152.55.129,"2019-06-17 07:09:22","1920 * 1080","5.0 (Windows NT 10.0; Win64; x64) AppleWebKit/537","Chrome/75.0.3770.90 Safari/537.36",Desktop,126.98265,37.561,"Korea (South)",Seoul,"Seoul Teukbyeolsi",,ee-ip.org/articles/detailed/87f4ab4b1d6c3c767a9dcae1e30b0808/the-technical-potential-of-large-and-industrial-heat-pumps,,www.google.co.kr,0,1,0,0,www.ee-ip.org/articles/detailed/87f4ab4b1d6c3c767a9dcae1e30b0808/the-technical-potential-of-large-and-industrial-heat-pumps
"Kddi Corporation",0120-959-472,http://www.kddi.com/,KD111239158179.au-net.ne.jp,111.239.158.179,"2019-06-16 17:01:33","320 * 568","5.0 (iPhone; CPU iPhone OS 12_2 like Mac OS X) Ap","Version/12.1 Mobile/15E148 Safari/604.1",Mobile,135.53157,34.69174,Japan,"Chuo-Ku (Osaka)",Osaka,,ee-ip.org/events/detailed/fcd0540042ad4336d968a1d787228f87/g20-global-summit-on-financing-energy-efficiency-innovation-and-clean-technology,,www.google.com.au,0,1,0,0,www.ee-ip.org/events/detailed/fcd0540042ad4336d968a1d787228f87/g20-global-summit-on-financing-energy-efficiency-innovation-and-clean-technology
"Agilent Technologies Sales & Services Gmbh & Co. Kg","""+49 (0)69-677343-2201""",https://www.agilent.com/,ec2-35-157-162-70.eu-central-1.compute.amazonaws.com,35.157.162.70,"2019-06-16 14:02:19","1024 * 768","5.0 (Unknown; Linux x86_64) AppleWebKit/538.1 (KH","PhantomJS/2.1.1 Safari/538.1",Desktop,8.6821,50.1109,Germany,"Frankfurt Am Main",Hessen,,www2.ee-ip.org/content/CompanyPage/show/videc-data-engineering-gmbh,,,0,0,0,0,"www.www2.ee-ip.org/content/CompanyPage/show/videc-data-engineering-gmbh --> www.ee-ip.org/services --> www.ee-ip.org/services"
Seznam.Cz,"""+420 234 694 111""",https://www.seznam.cz/,screenshotgenerator-77-75-77-123.seznam.cz,77.75.77.123,"2019-06-16 08:04:43","1024 * 768","5.0 PhantomJS (compatible; Seznam screenshot-gene",Firefox,Desktop,14.49282,50.05128,"Czech Republic",Praha,"Hlavni Mesto Praha",,ee-ip.org,,,0,0,0,0,www.ee-ip.org
"University Of Pennsylvania Department Of Linguistics","(215) 898-6046",https://babel.ling.upenn.edu/,ec2-54-167-203-26.compute-1.amazonaws.com,54.167.203.26,"2019-06-16 03:13:41","800 * 600","5.0 (X11; Linux x86_64) AppleWebKit/537.36 (KHTML","Chrome/60.0.3112.50 Safari/537.36",Desktop,-77.4742,39.0437,"United States",Ashburn,Virginia,,ee-ip.org,,,0,0,0,36,"www.ee-ip.org --> www.ee-ip.org/articles/detailed/7a63d03adb027ab72323daa86bdbd98d/electric-vehicles-heat-pumps-electric-motors-play-a-crucial-role-in-the-energy-transition"
"Vrije Universiteit Brussel",,vub.ac.be,134.184.254.71,134.184.254.71,"2019-06-14 18:14:27","1536 * 864","5.0 (Windows NT 10.0; Win64; x64) AppleWebKit/537","Chrome/74.0.3729.169 Safari/537.36",Desktop,4.37178,50.82768,Belgium,Elsene,Brussels,,ee-ip.org,,www.google.com,0,1,0,0,"www.ee-ip.org --> www.ee-ip.org"
"University Of New Brunswick",,,131.202.192.133,131.202.192.133,"2019-06-14 15:58:43","1440 * 900","5.0 (Macintosh; Intel Mac OS X 10_13_6) AppleWebK","Chrome/74.0.3729.169 Safari/537.36",Mac,-66.69046,45.97844,Canada,Fredericton,"New Brunswick",,ee-ip.org/partners,,www.ee-ip.org,0,0,0,0,www.ee-ip.org/partners
"Coventry City Council","0500 834 333",http://www.coventry.gov.uk,195.194.15.21,195.194.15.21,"2019-06-14 12:14:18","1920 * 1080","5.0 (Windows NT 6.3; WOW64) AppleWebKit/537.36 (K","Chrome/73.0.3683.86 Safari/537.36 PTST/SpeedCurve/190322.130349",Desktop,-1.914,52.491,"United Kingdom",Hockley,Birmingham,"Holmhead Farm, Bucksburn, Aberdeen",www2.ee-ip.org/content/CompanyPage/show/acte-heat-exchanger/file/188_Waste_Heat_Recovery_in_SME_industrial_processes,,www.google.com,0,1,0,0,www.www2.ee-ip.org/content/CompanyPage/show/acte-heat-exchanger/file/188_Waste_Heat_Recovery_in_SME_industrial_processes
"Mckinsey & Company","""+91 (44) 6641 3000""",http://www.mckinsey.com,156.109.18.122,156.109.18.122,"2019-06-14 10:12:01","1280 * 720","5.0 (Windows NT 10.0; Win64; x64) AppleWebKit/537","Chrome/75.0.3770.80 Safari/537.36",Desktop,-0.19917,51.49556,"United Kingdom","Kensington And Chelsea","Greater London","40 Frith Road, London, England, E11 4EY",ee-ip.org/articles/detailed/d073ae0086e1f703bc62af769c6c7025/36-emerging-technologies-for-energyefficiency-and-ghg-emissions-reduction-in-the-pulp-and-paper-indu,,,0,0,0,0,www.ee-ip.org/articles/detailed/d073ae0086e1f703bc62af769c6c7025/36-emerging-technologies-for-energyefficiency-and-ghg-emissions-reduction-in-the-pulp-and-paper-indu
"Lanka Education And Research Network","""+94 81 200 3030""",http://www.ac.lk,192.248.98.1,192.248.98.1,"2019-06-14 07:22:57","1600 * 900","5.0 (Windows NT 6.1; Win64; x64) AppleWebKit/537.","Chrome/75.0.3770.80 Safari/537.36",Desktop,79.8767,6.7991,"Sri Lanka",Moratuwa,Kolamba,,ee-ip.org/articles/detailed/1217a4c3836efc7e4ae5bf279b6578d4/aluminum-industry-10-emerging-technologies-for-energy-efficiency-and-ghg-emissions-reduction,,www.google.com,0,1,0,2476,"www.ee-ip.org/articles/detailed/1217a4c3836efc7e4ae5bf279b6578d4/aluminum-industry-10-emerging-technologies-for-energy-efficiency-and-ghg-emissions-reduction --> www.ee-ip.org/articles/detailed/d073ae0086e1f703bc62af769c6c7025/36-emerging-technologies-for-energyefficiency-and-ghg-emissions-reduction-in-the-pulp-and-paper-indu"
"A Niemi Engineering Oy","""+358 40 5147 719""",http://www.niemiengineering.fi/,62-165-140-193.co.dnainternet.fi,62.165.140.193,"2019-06-14 06:32:50","1680 * 1050","5.0 (Windows NT 10.0; Win64; x64) AppleWebKit/537","Chrome/73.0.3683.103 Safari/537.36 OPR/60.0.3255.151",Desktop,28.23565,61.04668,Finland,Lappeenranta,Etela-Karjala,,ee-ip.org/articles,,www.ee-ip.org,0,0,0,0,www.ee-ip.org/articles
"Upc Schweiz Gmbh","0800 66 88 66",https://www.upc.ch,77-56-90-55.dclient.hispeed.ch,77.56.90.55,"2019-06-13 22:30:10","360 * 760","5.0 (Linux; Android 9; Mi A2 Lite) AppleWebKit/53","Version/4.0 Chrome/74.0.3729.157 Mobile Safari/537.36 [FB_IAB/FB4A;FBAV/220.0.0.46.112;]",Mobile,6.64127,46.5981,Switzerland,Bretigny-Sur-Morrens,Vaud,,ee-ip.org,,,0,0,0,0,www.ee-ip.org
"Universitat Politecnica De Valencia","""+34 96 387 70 00""",https://www.upv.es,edu240-83.wi-fi.upv.es,158.42.240.83,"2019-06-13 18:24:41","1280 * 1024","5.0 (Windows)",Firefox,Desktop,-0.38072,39.47418,Spain,Valencia,Valencia,,ee-ip.org,,,0,0,0,924,"www.ee-ip.org --> www.ee-ip.org --> www.ee-ip.org/about --> www.ee-ip.org/articles --> www.ee-ip.org/services"
"Hanyang University",,hanyang.ac.kr,166.104.246.96,166.104.246.96,"2019-06-13 15:10:47","1536 * 864","5.0 (Windows NT 6.1; Win64; x64) AppleWebKit/537.","Chrome/70.0.3538.77 Safari/537.36 PTST/181031.191047",Desktop,126.83041,37.31929,"Korea (South)",Ansan,Gyeonggi-Do,,ee-ip.org/articles,,www.ee-ip.org,0,0,0,30,"www.ee-ip.org/articles --> www.ee-ip.org/nc/business-practices"
"Ted Alert","""+352 42 44 77""",http://www.tenders.com,mail.tedalert.lu,195.46.249.218,"2019-06-13 14:30:25","1680 * 1050","5.0 (Windows NT 6.1; WOW64; Trident/7.0; SLCC2; .",Firefox,Desktop,6.10624,49.61624,Luxembourg,Luxembourg,Luxembourg,,ee-ip.org,,,0,0,0,0,www.ee-ip.org
"Stofa As","88 30 30 30",https://stofa.dk,3e6b1c5c.rev.stofanet.dk,62.107.28.92,"2019-06-13 13:05:38","1280 * 720","5.0 (Windows NT 10.0; Win64; x64) AppleWebKit/537","Chrome/74.0.3729.169 Safari/537.36",Desktop,9.8407,55.8605,Denmark,Horsens,Midtjylland,,ee-ip.org,,dk.search.yahoo.com,0,1,0,88,"www.ee-ip.org --> www.ee-ip.org/about --> www.ee-ip.org/about --> www.ee-ip.org/partners --> www.ee-ip.org/services --> www.ee-ip.org/about --> www.ee-ip.org/nc/business-practices"
"Gestore Dei Servizi Energetici Gse S.P.A.","""+39 06.9292.8540""",https://www.gse.it,89-97-69-100.ip16.fastwebnet.it,89.97.69.100,"2019-06-13 12:13:09","1600 * 900","5.0 (Windows NT 6.1; Win64; x64) AppleWebKit/537.","Chrome/75.0.3770.80 Safari/537.36",Desktop,12.3063,41.7755,Italy,Roma,Roma,,ee-ip.org/articles/detailed/fa42c6cf40438e1f6c04feda8bbf3984/green-aviation,,www.google.com,0,1,0,0,www.ee-ip.org/articles/detailed/fa42c6cf40438e1f6c04feda8bbf3984/green-aviation
"Hiroshima City University",,hiroshima-cu.ac.jp,165.242.102.138,165.242.102.138,"2019-06-13 10:10:19","1536 * 864","5.0 (Windows NT 10.0; Win64; x64) AppleWebKit/537","Chrome/74.0.3729.169 Safari/537.36",Desktop,132.45816,34.41523,Japan,Hiroshima-Shi,Hiroshima,,ee-ip.org/articles/detailed/219bd012d74c75756eb8340db1aa8b40/5-steps-for-a-robust-energy-strategy,,www.google.com,0,1,0,0,www.ee-ip.org/articles/detailed/219bd012d74c75756eb8340db1aa8b40/5-steps-for-a-robust-energy-strategy
Kpmg,"""+32 (0)3 821 17 00""",http://www.kpmg.com,103.224.105.10,103.224.105.10,"2019-06-13 09:34:19","1366 * 768","5.0 (Windows NT 10.0; Win64; x64) AppleWebKit/537","Chrome/75.0.3770.80 Safari/537.36",Desktop,77.225,28.6353,India,Delhi,Delhi,,ee-ip.org/articles/detailed/7cc969ab93f80c76a54ecc339c544ae9/turkey-industrial-energy-efficiency-strategy,,www.google.com,0,1,0,311,"www.ee-ip.org/articles/detailed/7cc969ab93f80c76a54ecc339c544ae9/turkey-industrial-energy-efficiency-strategy --> www.ee-ip.org/about"
". College Of Engineering Karad",,bsnl.in,117.239.185.170,117.239.185.170,"2019-06-13 08:43:34","1366 * 768","5.0 (Windows NT 10.0; Win64; x64) AppleWebKit/537","Chrome/75.0.3770.80 Safari/537.36",Desktop,74.022,17.694,India,Satara,Maharashtra,,ee-ip.org/articles/detailed/bd3568515e538ad350faf063915c6141/heatpumps-vision-vs-reality,,www.google.com,0,1,0,0,www.ee-ip.org/articles/detailed/bd3568515e538ad350faf063915c6141/heatpumps-vision-vs-reality
"A Niemi Engineering Oy","""+358 40 5147 719""",http://www.niemiengineering.fi/,62-165-140-193.co.dnainternet.fi,62.165.140.193,"2019-06-13 07:54:48","1680 * 1050","5.0 (Windows NT 10.0; Win64; x64) AppleWebKit/537","Chrome/73.0.3683.103 Safari/537.36 OPR/60.0.3255.95",Desktop,28.23565,61.04668,Finland,Lappeenranta,Etela-Karjala,,ee-ip.org/articles,,www.ee-ip.org,0,0,0,0,www.ee-ip.org/articles
"University Of New Brunswick",,,131.202.192.133,131.202.192.133,"2019-06-12 21:34:34","1440 * 900","5.0 (Macintosh; Intel Mac OS X 10_13_6) AppleWebK","Chrome/74.0.3729.169 Safari/537.36",Mac,-66.69046,45.97844,Canada,Fredericton,"New Brunswick",,ee-ip.org,,,0,0,0,6,"www.ee-ip.org --> www.ee-ip.org/partners --> www.ee-ip.org/partners"
"Vrije Universiteit Brussel",,vub.ac.be,134.184.254.73,134.184.254.73,"2019-06-12 14:42:02","455 * 960","5.0 (Linux; Android 9; ONEPLUS A6000) AppleWebKit","Chrome/75.0.3770.67 Mobile Safari/537.36",Mobile,4.37178,50.82768,Belgium,Elsene,Brussels,,ee-ip.org,,www.google.com,0,1,0,143,"www.ee-ip.org --> www.ee-ip.org/about --> www.ee-ip.org/the-network"
"Petroleo Brasileiro S.A. - Petrobras","""+55 21 3224 4477""",http://www.petrobras.com.br,inet6.petrobras.com.br,164.85.85.106,"2019-06-12 13:56:10","1366 * 768","5.0 (Windows)",Firefox,Desktop,-42.35321,-22.86936,Brazil,"Rio De Janeiro","Rio De Janeiro",,ee-ip.org/articles/detailed/d1bb2647d9044a7fb75ba2eab1eb3312/why-do-you-need-energy-storage-monitoring,,www.google.com.br,0,1,0,0,www.ee-ip.org/articles/detailed/d1bb2647d9044a7fb75ba2eab1eb3312/why-do-you-need-energy-storage-monitoring
Enea,06-36271,http://www.enea.it,nat-76-3.casaccia.enea.it,192.107.76.3,"2019-06-12 11:59:15","1280 * 800","5.0 (Macintosh; Intel Mac OS X 10_14_5) AppleWebK","Mobile/16C50 Version/12.1.1 Safari/605.1.15 (AirWatch Browser v7.3.1",Mac,12.26989,42.09264,Italy,"Anguillara Sabazia",Roma,,ee-ip.org,,duckduckgo.com,0,0,0,66,"www.ee-ip.org --> www.ee-ip.org/about --> www.ee-ip.org/the-network --> www.ee-ip.org/partners"
"Envia Mitteldeutsche Energie Ag","""+49 800 2040506""",https://www.enviam.de/,194.113.77.221,194.113.77.221,"2019-06-12 11:32:21","1920 * 1080","5.0 (Windows NT 10.0; WOW64) AppleWebKit/537.36 (","Chrome/74.0.3729.169 Safari/537.36",Desktop,12.8977,50.8574,Germany,Chemnitz,Sachsen,,www2.ee-ip.org/content/CompanyPage/show/wattline-gmbh/file/257_Stromkosten_sparen_durch_Netzentgeltoptimierung,,www.google.com,0,1,0,62,"www.www2.ee-ip.org/content/CompanyPage/show/wattline-gmbh/file/257_Stromkosten_sparen_durch_Netzentgeltoptimierung --> www.www2.ee-ip.org/content/CompanyPage/show/wattline-gmbh/file/257_Stromkosten_sparen_durch_Netzentgeltoptimierung"
"Kpmg Huazhen Llp","""+86 21 2212 2888""",https://home.kpmg.com,210.22.147.134,210.22.147.134,"2019-06-12 09:44:42","1536 * 864","5.0 (Windows NT 10.0; Win64; x64) AppleWebKit/537","Chrome/64.0.3282.140 Safari/537.36 Edge/17.17134",Desktop,121.47021,31.22847,China,Shanghai,"Shanghai Shi",,ee-ip.org,,cn.bing.com,0,1,0,0,www.ee-ip.org
"Methodist Ladies  College",,vic.edu.au,203.1.203.51,203.1.203.51,"2019-06-12 04:04:08","1280 * 720","5.0 (Windows NT 10.0; Win64; x64) AppleWebKit/537","Chrome/74.0.3729.169 Safari/537.36",Desktop,144.96317,-37.81425,Australia,Melbourne,Victoria,,ee-ip.org/articles/detailed/d73b78e21d506c695cd13546d412686d/the-hidden-benefits-of-solar-powered-energy,,www.google.com.au,0,1,0,783,"www.ee-ip.org/articles/detailed/d73b78e21d506c695cd13546d412686d/the-hidden-benefits-of-solar-powered-energy --> www.ee-ip.org/articles/detailed/d73b78e21d506c695cd13546d412686d/the-hidden-benefits-of-solar-powered-energy --> www.ee-ip.org/articles/detailed/d73b78e21d506c695cd13546d412686d/the-hidden-benefits-of-solar-powered-energy"
"Sierra Nevada Corporation","""+1 775 331 0222""",https://www.sncorp.com/,204.86.117.1,204.86.117.1,"2019-06-11 22:35:47","1920 * 1080","5.0 (Windows NT 10.0; WOW64; Trident/7.0; .NET4.0",Firefox,Desktop,-104.94193,39.78491,"United States",Denver,Colorado,,ee-ip.org/articles/detailed/e360b8ba312356f89fce2817eb9aa841/choosing-the-best-techniques-for-waste-heat-recovery,,www.bing.com,0,1,0,0,www.ee-ip.org/articles/detailed/e360b8ba312356f89fce2817eb9aa841/choosing-the-best-techniques-for-waste-heat-recovery
"University Of Stavanger",,,152.94.59.5,152.94.59.5,"2019-06-11 19:15:50","1366 * 768","5.0 (Windows NT 10.0; Win64; x64) AppleWebKit/537","Chrome/74.0.3729.169 Safari/537.36",Desktop,5.62558,58.95627,Norway,Hafrsfjord,Rogaland,,ee-ip.org,,www.google.com,0,1,0,28,"www.ee-ip.org --> www.ee-ip.org/about --> www.ee-ip.org/services"
"Vrije Universiteit Brussel",,vub.ac.be,134.184.254.71,134.184.254.71,"2019-06-11 13:10:46","1536 * 864","5.0 (Windows NT 10.0; Win64; x64) AppleWebKit/537","Chrome/74.0.3729.169 Safari/537.36",Desktop,4.37178,50.82768,Belgium,Elsene,Brussels,,ee-ip.org,,,0,0,0,0,www.ee-ip.org
"Universitat Politecnica De Valencia","""+34 96 387 70 00""",https://www.upv.es,edu240-134.wi-fi.upv.es,158.42.240.134,"2019-06-11 12:46:42","1280 * 1024","5.0 (Windows)",Firefox,Desktop,-0.38072,39.47418,Spain,Valencia,Valencia,,ee-ip.org,,,0,0,0,3161,"www.ee-ip.org --> www.ee-ip.org/about --> www.ee-ip.org/services --> www.ee-ip.org --> www.ee-ip.org"
Circe,"""+34 976 97 68 59""",http://www.fcirce.es/,195.77.36.225,195.77.36.225,"2019-06-11 10:37:09","1920 * 1080","5.0 (Windows NT 10.0; Win64; x64) AppleWebKit/537","Chrome/74.0.3729.169 Safari/537.36",Desktop,1.99794,41.59386,Spain,Terrassa,Barcelona,,ee-ip.org,,www.google.com,0,1,0,1004,"www.ee-ip.org --> www.ee-ip.org/about --> www.ee-ip.org/about --> www.ee-ip.org/services --> www.ee-ip.org/partners --> www.ee-ip.org/about --> www.ee-ip.org"
"Stavros Niarchos Foundation Cultural Center","""(+30) 216-8091000""",https://www.snfcc.org/,185.156.63.4,185.156.63.4,"2019-06-11 08:43:16","1920 * 1080","5.0 (Windows NT 6.3; Win64; x64) AppleWebKit/537.","Chrome/74.0.3729.169 Safari/537.36",Desktop,23.71999,37.96999,Greece,Athina,Attiki,,ee-ip.org/events/detailed/b8f8c19e99297b0582f99a931018720a/investor-days-workshop-in-london-the-11th-of-september-2018,,www.google.com,0,1,0,0,www.ee-ip.org/events/detailed/b8f8c19e99297b0582f99a931018720a/investor-days-workshop-in-london-the-11th-of-september-2018
"Hanyang University",,hanyang.ac.kr,166.104.246.96,166.104.246.96,"2019-06-11 04:22:14","1536 * 864","5.0 (Windows NT 6.1; Win64; x64) AppleWebKit/537.","Chrome/70.0.3538.77 Safari/537.36 PTST/181031.191047",Desktop,126.83041,37.31929,"Korea (South)",Ansan,Gyeonggi-Do,,ee-ip.org/articles/detailed/4f4b42dca867849009fa2064b0b91c78/utilities-large-missed-opportunity-demand-response-in-manufacturing,,www.google.com,0,1,0,0,www.ee-ip.org/articles/detailed/4f4b42dca867849009fa2064b0b91c78/utilities-large-missed-opportunity-demand-response-in-manufacturing
"Ncc Group","""+44(0)161 826 7128""",https://www.nccgroup.trust,37.175.168.30,37.175.168.30,"2019-06-10 21:22:07","360 * 747","5.0 (Linux; Android 9; CLT-L04 Build/HUAWEICLT-L0","Version/4.0 Chrome/74.0.3729.157 Mobile Safari/537.36 OPT/1.17.66",Mobile,2.34107,48.86023,France,Paris,Paris,,www2.ee-ip.org/content/CompanyPage/show/norsk-energi/file/101_Energy_Management_-_Step_by_Step,,,0,0,0,0,www.www2.ee-ip.org/content/CompanyPage/show/norsk-energi/file/101_Energy_Management_-_Step_by_Step
"Lanet Network Ltd","""+380 44 500 0303""",http://www.la.net.ua,host-176-36-226-230.la.net.ua,176.36.226.230,"2019-06-10 19:28:16","360 * 640","5.0 (Linux; Android 9; Mi A1) AppleWebKit/537.36 ","Version/4.0 Chrome/74.0.3729.157 Mobile Safari/537.36 [FB_IAB/FB4A;FBAV/220.0.0.46.112;]",Mobile,30.51667,50.43333,Ukraine,Kyiv,"Kyiv Misto",,www2.ee-ip.org/content/CompanyPage/show/norsk-energi/file/101_Energy_Management_-_Step_by_Step,,com.linkedin.android,0,1,0,0,www.www2.ee-ip.org/content/CompanyPage/show/norsk-energi/file/101_Energy_Management_-_Step_by_Step
"Universita  Ca  Foscari - Venezia",,,157.138.32.193,157.138.32.193,"2019-06-10 17:35:53","1920 * 1080","5.0 (Windows)",Firefox,Desktop,12.326,45.431,Italy,Dorsoduro,Venezia,,ee-ip.org/articles/detailed/118b6fd8f841b469f817b35dbc32c344/more-than-ronaldo-how-5-innovative-portuguese-companies-drive-energy-efficiency,,www.google.com,0,1,0,1191,"www.ee-ip.org/articles/detailed/118b6fd8f841b469f817b35dbc32c344/more-than-ronaldo-how-5-innovative-portuguese-companies-drive-energy-efficiency --> www.ee-ip.org/articles/detailed/118b6fd8f841b469f817b35dbc32c344/more-than-ronaldo-how-5-innovative-portuguese-companies-drive-energy-efficiency"
"University Of Oxford","""+44 1865 270000""",http://www.ox.ac.uk/,ouce39-145.ouce.ox.ac.uk,163.1.39.145,"2019-06-10 17:29:47","1680 * 1050","5.0 (Windows)",Firefox,Desktop,-1.27556,51.75,"United Kingdom",Oxford,Oxfordshire,,ee-ip.org,,,0,0,0,11,"www.ee-ip.org --> www.ee-ip.org/nc/business-practices"
"Club Med","""+212 5244-25800""",http://www.clubmed.com,ll81-42-70-192-81.ll81.iam.net.ma,81.192.70.42,"2019-06-10 15:59:22","375 * 667","5.0 (iPhone; CPU iPhone OS 12_2 like Mac OS X) Ap","Mobile/15E148 [LinkedInApp]",Mobile,-6.846,33.997,Morocco,Rabat,Rabat-Sale-Kenitra,,www2.ee-ip.org/content/CompanyPage/show/norsk-energi/file/101_Energy_Management_-_Step_by_Step,,,0,0,0,0,"www.www2.ee-ip.org/content/CompanyPage/show/norsk-energi/file/101_Energy_Management_-_Step_by_Step --> www.www2.ee-ip.org/content/CompanyPage/show/norsk-energi/file/101_Energy_Management_-_Step_by_Step"
"Petrol Group","""+ 386 1 47 14 234""",www.petrol.eu/,193.77.161.11,193.77.161.11,"2019-06-10 14:50:10","1536 * 864","5.0 (Windows NT 10.0; Win64; x64) AppleWebKit/537","Chrome/74.0.3729.169 Safari/537.36",Desktop,14.50597,46.05143,Slovenia,Ljubljana,Ljubljana,,www2.ee-ip.org/content/CompanyPage/show/norsk-energi/file/101_Energy_Management_-_Step_by_Step,,,0,0,0,0,www.www2.ee-ip.org/content/CompanyPage/show/norsk-energi/file/101_Energy_Management_-_Step_by_Step
"European Commission","00 800 67 89 10 11",https://ec.europa.eu/,s-jrcsvqpx103p.jrc.es,139.191.159.250,"2019-06-10 10:38:37","1920 * 1080","5.0 (Windows NT 6.1; Win64; x64) AppleWebKit/537.","""HeadlessChrome/74.0.3729.108 Safari/537.36 Prerender (+https://github.com/prerender/prerender""",Desktop,-3.68514,40.42618,Spain,Madrid,Madrid,,ee-ip.org/articles/detailed/b97292b5e1a44315e76ff3c246b183f1/digital-transformation-of-energy-utilities-shifting-gears,,www.google.com,0,1,0,0,www.ee-ip.org/articles/detailed/b97292b5e1a44315e76ff3c246b183f1/digital-transformation-of-energy-utilities-shifting-gears
"Universite De Liege (Ulg)","32 4 3669701",http://www.ulg.ac.be/,nat01-vpn.ulg.ac.be,139.165.31.11,"2019-06-09 17:17:34","1280 * 720","5.0 (Windows NT 10.0; Win64; x64) AppleWebKit/537","Chrome/74.0.3729.169 Safari/537.36",Desktop,5.57205,50.64065,Belgium,Liege,Liege,,ee-ip.org,,www.icabrussel.be,0,0,0,0,www.ee-ip.org
"Vrije Universiteit Brussel",,vub.ac.be,134.184.254.71,134.184.254.71,"2019-06-09 15:46:06","1536 * 864","5.0 (Windows NT 10.0; Win64; x64) AppleWebKit/537","Chrome/74.0.3729.169 Safari/537.36",Desktop,4.37178,50.82768,Belgium,Elsene,Brussels,,ee-ip.org,,www.google.com,0,1,0,0,www.ee-ip.org
"Thales Group","01932 824800",https://www.thalesgroup.com,109.234.169.81,109.234.169.81,"2019-06-09 11:42:30","1366 * 768","5.0 (Windows NT 10.0; Win64; x64; Trident/7.0; .N",Firefox,Desktop,-0.834,51.724,"United Kingdom","Princes Risborough",Buckinghamshire,"6  Snow Hill, London, EC1A 2AY",www2.ee-ip.org/content/CompanyPage/show/european-copper-institute/file/235_Asset_and_Energy_Management_-_or_ISO_50001_vs_ISO_55001,,,0,0,0,0,www.www2.ee-ip.org/content/CompanyPage/show/european-copper-institute/file/235_Asset_and_Energy_Management_-_or_ISO_50001_vs_ISO_55001
"Econoler Inc","VIDEOTRON TELECOM LTEE",207.253.195.138,207.253.195.138,207.253.195.138,"2019-06-07 17:51:49","1440 * 900","5.0 (Windows NT 6.1; Win64; x64) AppleWebKit/537.","Chrome/74.0.3729.169 Safari/537.36",Desktop,-73.56201,45.50208,Canada,Montreal,Quebec,,ee-ip.org/articles/detailed/1a0f1159f5c75ae1b96b30b4ed4f3c5a/6-principles-for-a-market-design-that-enables-the-energy-transition,,www.google.com,0,1,0,0,www.ee-ip.org/articles/detailed/1a0f1159f5c75ae1b96b30b4ed4f3c5a/6-principles-for-a-market-design-that-enables-the-energy-transition
"Cestaro Fonderie Spa","""+39 0444 460400""",https://www.fonderiecestaro.it/,ip.213.178.201.146.telemar.it,213.178.201.146,"2019-06-07 17:07:19","1366 * 768","5.0 (Windows NT 6.1; Win64; x64) AppleWebKit/537.","Chrome/74.0.3729.169 Safari/537.36",Desktop,11.6146,45.5456,Italy,"Villaggio Montegrappa",Vicenza,,ee-ip.org/about,,www.google.com,0,1,0,0,www.ee-ip.org/about
"University Of Applied Sciences Hamburg","""+49.40.428 75-0 """,https://www.haw-hamburg.de,141.22.122.121,141.22.122.121,"2019-06-07 12:36:24","1920 * 1200","5.0 (X11)",Firefox,Desktop,10.0107,53.5583,Germany,Hamburg,Hamburg,,ee-ip.org,,,0,0,0,3124,"www.ee-ip.org --> www.ee-ip.org/about --> www.ee-ip.org/partners --> www.ee-ip.org/legal-notices --> www.ee-ip.org/about --> www.ee-ip.org"
"Sorba Projects","""+31 (0) 543 546 700""",www.sorba.nl/,static.kpn.net,188.200.124.106,"2019-06-07 11:09:28","1920 * 1200","5.0 (Windows)",Firefox,Desktop,6.72483,51.97141,Netherlands,Winterswijk,Gelderland,,www2.ee-ip.org/content/CompanyPage/show/norsk-energi/file/106_Energy_Efficiency_in_Ferroalloy_Industry,,www.linkedin.com,0,1,0,0,www.www2.ee-ip.org/content/CompanyPage/show/norsk-energi/file/106_Energy_Efficiency_in_Ferroalloy_Industry
"Fh St. Poelten","""+43/2742/313 228-200""",https://www.fhstp.ac.at/,risoc.nwt.fhstp.ac.at,91.219.68.135,"2019-06-07 03:49:53","800 * 600","5.0 (X11; Linux x86_64) AppleWebKit/537.36 (KHTML","Ubuntu Chromium/74.0.3729.169 HeadlessChrome/74.0.3729.169 Safari/537.36",Desktop,15.62266,48.20454,Austria,"Sankt Poelten",Niederoesterreich,,ee-ip.org,,,0,0,0,0,www.ee-ip.org
"Universita  Degli Studi Di Pisa",,unipi.it,lombardo6.ing.unipi.it,131.114.29.158,"2019-06-06 17:30:14","1920 * 1080","5.0 (Windows NT 10.0; Win64; x64) AppleWebKit/537","Chrome/64.0.3282.140 Safari/537.36 Edge/18.17763",Desktop,10.3975,43.7194,Italy,Pisa,Pisa,,ee-ip.org,,www.bing.com,0,1,0,21,"www.ee-ip.org --> www.ee-ip.org/articles --> www.ee-ip.org"
Nextsense,"""+43 (0) 316 232400-0""",https://www.nextsense-worldwide.com/,132-159-73-109.static.grazkom.at,109.73.159.132,"2019-06-06 16:33:47","1920 * 1080","5.0 (Windows)",Firefox,Desktop,15.44172,47.06792,Austria,Graz,Steiermark,,www2.ee-ip.org/content/CompanyPage/show/swep-international/file/434_Outokumpu_Cools_Machine_Shop_using_natural_Elements,,t.co,0,0,0,0,www.www2.ee-ip.org/content/CompanyPage/show/swep-international/file/434_Outokumpu_Cools_Machine_Shop_using_natural_Elements
"Fedabo Spa","""+39 0364 538000""",http://www.fedabo.com/,host66-24-static.186-82-b.business.telecomitalia.it,82.186.24.66,"2019-06-06 16:28:56","1366 * 768","5.0 (Windows NT 6.1; WOW64; Trident/7.0; SLCC2; .",Firefox,Desktop,9.52376,45.54408,Italy,"Groppello D'Adda",Milano,,ee-ip.org/articles/detailed/53342740eae28d5ee08e107a0b057533/icp-top-2-benefits-for-energy-efficiency-project-developers,,,0,0,0,894,"www.ee-ip.org/articles/detailed/53342740eae28d5ee08e107a0b057533/icp-top-2-benefits-for-energy-efficiency-project-developers --> www.ee-ip.org/articles/detailed/53342740eae28d5ee08e107a0b057533/icp-top-2-benefits-for-energy-efficiency-project-developers"
"Fedabo Spa","""+39 0364 538000""",http://www.fedabo.com/,host66-24-static.186-82-b.business.telecomitalia.it,82.186.24.66,"2019-06-06 16:22:12","1920 * 1080","5.0 (Windows NT 6.3; Win64; x64) AppleWebKit/537.","Chrome/75.0.3770.80 Safari/537.36",Desktop,9.52376,45.54408,Italy,"Groppello D'Adda",Milano,,ee-ip.org/articles/detailed/53342740eae28d5ee08e107a0b057533/icp-top-2-benefits-for-energy-efficiency-project-developers,,,0,0,0,0,www.ee-ip.org/articles/detailed/53342740eae28d5ee08e107a0b057533/icp-top-2-benefits-for-energy-efficiency-project-developers
"Aalborg Universitet","""+45 9940 9940""",http://www.aau.dk,h216.natout.aau.dk,130.225.198.216,"2019-06-06 13:42:28","1920 * 1080","5.0 (Windows NT 6.1; WOW64) AppleWebKit/537.36 (K","Chrome/74.0.3729.169 Safari/537.36",Desktop,9.9201,57.04723,Denmark,Aalborg,Nordjylland,,ee-ip.org/articles/detailed/8283f2a21cf5ec6221708ddc17cf2721/the-profile-of-energy-use-in-industrial-motor-systems,,www.google.com,0,1,0,0,www.ee-ip.org/articles/detailed/8283f2a21cf5ec6221708ddc17cf2721/the-profile-of-energy-use-in-industrial-motor-systems
"Akc -Schwarz Gmbh","02235 - 9599552",https://www.akc-erftstadt.de/,93.240.147.114,93.240.147.114,"2019-06-06 13:21:42","412 * 732","5.0 (Linux; Android 9; Nokia 6.1) AppleWebKit/537","Version/4.0 Chrome/74.0.3729.157 Mobile Safari/537.36 [FB_IAB/FB4A;FBAV/220.0.0.46.112;]",Mobile,9.42152,50.72126,Germany,Schwarz,Hessen,,ee-ip.org/articles/detailed/acf17ceb7cc3ca018ef3b57f08c2ce0f/making-an-impact,,com.linkedin.android,0,1,0,0,www.ee-ip.org/articles/detailed/acf17ceb7cc3ca018ef3b57f08c2ce0f/making-an-impact
"Laboratorio Nacional De Energia E Geologia","""+351 210 924 600""",http://www.lneg.pt,193.137.43.253,193.137.43.253,"2019-06-06 12:51:27","1920 * 1080","5.0 (Windows)",Firefox,Desktop,-9.23639,38.76333,Portugal,Amadora,Lisboa,,ee-ip.org,,,0,0,0,13,"www.ee-ip.org --> www.ee-ip.org/about"
"University Of Zagreb","(01) 6129 999",https://www.fer.unizg.hr/,minea.zvne.fer.hr,161.53.66.37,"2019-06-06 12:04:56","1920 * 1080","5.0 (Windows NT 10.0; Win64; x64) AppleWebKit/537","Chrome/74.0.3729.169 Safari/537.36",Desktop,15.97511,45.83258,Croatia,Zagreb,"Grad Zagreb",,ee-ip.org/articles/detailed/34260b0b3988ea8db952bd0136a17120/glass-industry-16-emerging-technologies-for-energy-efficiency-and-ghg-emissions-reduction,,www.google.com,0,1,0,0,www.ee-ip.org/articles/detailed/34260b0b3988ea8db952bd0136a17120/glass-industry-16-emerging-technologies-for-energy-efficiency-and-ghg-emissions-reduction
"Vrije Universiteit Brussel",,vub.ac.be,134.184.254.84,134.184.254.84,"2019-06-06 11:44:09","1366 * 768","5.0 (Windows NT 10.0; Win64; x64) AppleWebKit/537","Chrome/74.0.3729.169 Safari/537.36",Desktop,4.37178,50.82768,Belgium,Elsene,Brussels,,ee-ip.org,,,0,0,0,31,"www.ee-ip.org --> www.ee-ip.org/services --> www.ee-ip.org"
"Wananchi Group (K) Ltd","""+254 20 3292000""",http://wananchi.com/,41.212.112.24.wananchi.com,41.212.112.24,"2019-06-06 10:35:11","1280 * 800","5.0 (X11)",Firefox,Desktop,36.81667,-1.28333,Kenya,Nairobi,"Nairobi Area",,ee-ip.org/about,,www.google.com,0,1,0,0,www.ee-ip.org/about
"Vrije Universiteit Brussel",,vub.ac.be,134.184.254.67,134.184.254.67,"2019-06-06 09:44:18","320 * 568","5.0 (iPhone; CPU iPhone OS 12_2 like Mac OS X) Ap","CriOS/74.0.3729.155 Mobile/15E148 Safari/605.1",Mobile,4.3925215057914,50.820816604193,Belgium,Elsene,Brussels,,ee-ip.org,,,0,0,1,125,"www.ee-ip.org --> www.ee-ip.org/about --> www.ee-ip.org/partners --> www.ee-ip.org/partners"
"Schneider Automation  Inc.",1.978.794.0800,http://www.modicon.com,205.167.7.245,205.167.7.245,"2019-06-06 09:38:16","1536 * 864","5.0 (Windows NT 10.0; Win64; x64) AppleWebKit/537","Chrome/73.0.3683.103 Safari/537.36 OPR/60.0.3255.84 (Edition Campaign 75",Desktop,2.34107,48.86023,France,Paris,Paris,,www2.ee-ip.org/content/CompanyPage/show/pepite-sa/file/158_Prayon_case_study:_with_data_mining_to_energy_efficiency_improvements,,www.google.com,0,1,0,0,www.www2.ee-ip.org/content/CompanyPage/show/pepite-sa/file/158_Prayon_case_study:_with_data_mining_to_energy_efficiency_improvements
"Huzhou Labor Technology School Huzhou Zhejiang Province",,,202.107.243.67,202.107.243.67,"2019-06-06 04:54:09","1280 * 1024","5.0 (Windows NT 6.1) AppleWebKit/537.36 (KHTML, l","Chrome/55.0.2883.87 Safari/537.36",Desktop,120.08833,30.84528,China,Huzhou,Zhejiang,,ee-ip.org,,,0,0,0,0,www.ee-ip.org
"Qd Sverige Ab"," 010 218 00 00 ",http://www.qd.se,213.179.18.241,213.179.18.241,"2019-06-05 11:22:44","375 * 812","5.0 (iPhone; CPU iPhone OS 12_3_1 like Mac OS X) ","Version/12.1.1 Mobile/15E148 Safari/604.1",Mobile,18.00843,59.36888,Sweden,Solna,"Stockholms Lan",,ee-ip.org/articles/detailed/8c9a196e2fef8fe8433f4dfbca0cee3a/icp-partners-made-it,,t.co,0,0,0,0,www.ee-ip.org/articles/detailed/8c9a196e2fef8fe8433f4dfbca0cee3a/icp-partners-made-it
"Etra Investigacion Y Desarrollo S.A.",,,195.77.187.234,195.77.187.234,"2019-06-05 10:03:26","1920 * 1080","5.0 (Windows NT 10.0; Win64; x64) AppleWebKit/537","Chrome/74.0.3729.169 Safari/537.36",Desktop,2.16836,41.37959,Spain,Barcelona,Barcelona,,www2.ee-ip.org/content/CompanyPage/show/european-copper-institute/file/296_Behind-the-Meter_Energy_Storage_Systems,,www.google.com,0,1,0,0,www.www2.ee-ip.org/content/CompanyPage/show/european-copper-institute/file/296_Behind-the-Meter_Energy_Storage_Systems
"Redi-Floors, Inc.","""+1 770 590 7334""",http://www.redifloors.com/,12.226.120.232,12.226.120.232,"2019-06-04 23:39:50","1536 * 864","5.0 (Windows NT 6.1; Win64; x64) AppleWebKit/537.","Chrome/74.0.3729.169 Safari/537.36",Desktop,-83.111936,42.5107456,"United States",Dallas,"Oakland County",,ee-ip.org/articles/detailed/e3856df40e2342fa6e02d4d5d9e11afe/utilize-all-the-available-energy-heat-recovery,,www.google.com,0,1,1,0,www.ee-ip.org/articles/detailed/e3856df40e2342fa6e02d4d5d9e11afe/utilize-all-the-available-energy-heat-recovery
Apple,408-996-1010,https://www.apple.com,17.207.206.109,17.207.206.109,"2019-06-04 20:04:46","1280 * 800","5.0 (Macintosh; Intel Mac OS X 10_14_5) AppleWebK","Mobile/16C50 Version/12.1.1 Safari/605.1.15 (AirWatch Browser v7.3.1",Mac,-122.4425,37.76917,"United States","San Francisco",California,,ee-ip.org/articles/detailed/999325585c33f81f2b421390498a8124/energy-audit-in-smes-could-unlock-great-energy-efficiency-potential-in-europe-a-focus-on-the-italia,,www.google.com,0,1,0,0,www.ee-ip.org/articles/detailed/999325585c33f81f2b421390498a8124/energy-audit-in-smes-could-unlock-great-energy-efficiency-potential-in-europe-a-focus-on-the-italia
"Fontana Sportveranstaltungs Gmbh","""+43 (0) 2253 606 2203""",https://fontana.at/,80.121.252.54,80.121.252.54,"2019-06-04 16:06:18","360 * 720","5.0 (Linux; Android 8.1.0; Redmi S2 Build/OPM1.17","Version/4.0 Chrome/74.0.3729.157 Mobile Safari/537.36 [FB_IAB/FB4A;FBAV/223.0.0.47.120;]",Mobile,16.3135763,47.9774615,Austria,Oberwaltersdorf,Baden,,ee-ip.org/articles/detailed/acf17ceb7cc3ca018ef3b57f08c2ce0f/making-an-impact,,m.facebook.com,0,0,1,0,www.ee-ip.org/articles/detailed/acf17ceb7cc3ca018ef3b57f08c2ce0f/making-an-impact
"Evedin Technologies",,,103.95.80.130,103.95.80.130,"2019-06-04 15:42:25","1680 * 1050","5.0 (Macintosh)",Firefox,Mac,80.2508,13.0524,India,Chennai,"Tamil Nadu",,ee-ip.org/articles/detailed/a2bd6c7cc795a02e466014f1d9ea5e2c/blockchain-in-the-energy-sector-is-moving-forward-key-takeaways-from-the-eventhorizon-2018,,www.google.com,0,1,0,0,www.ee-ip.org/articles/detailed/a2bd6c7cc795a02e466014f1d9ea5e2c/blockchain-in-the-energy-sector-is-moving-forward-key-takeaways-from-the-eventhorizon-2018
"Ener-G Nedalo B.V.","""+31 297 293 200""",http://www.energ.nl/,static.kpn.net,92.67.91.106,"2019-06-04 14:50:39","1920 * 1080","5.0 (Windows NT 10.0; Win64; x64) AppleWebKit/537","Chrome/74.0.3729.169 Safari/537.36",Desktop,4.86213,52.2076,Netherlands,Mijdrecht,Utrecht,,ee-ip.org/articles/detailed/e3856df40e2342fa6e02d4d5d9e11afe/utilize-all-the-available-energy-heat-recovery,,www.google.nl,0,1,0,0,www.ee-ip.org/articles/detailed/e3856df40e2342fa6e02d4d5d9e11afe/utilize-all-the-available-energy-heat-recovery
"Cardiff Metropolitan University",,uwic.ac.uk,195.194.132.151,195.194.132.151,"2019-06-04 14:20:51","1516 * 947","5.0 (Windows NT 10.0; Win64; x64) AppleWebKit/537","Chrome/58.0.3029.110 Safari/537.36 Edge/16.16299",Desktop,-3.321,51.566,"United Kingdom","Church Village","Rhondda Cynon Taff",,ee-ip.org/articles/detailed/ca964c970447bfe0721c763ab4b2b43c/energy-flexibility-initiative-from-the-university-of-stuttgart,,www.bing.com,0,1,0,0,www.ee-ip.org/articles/detailed/ca964c970447bfe0721c763ab4b2b43c/energy-flexibility-initiative-from-the-university-of-stuttgart
"Eksjo Energi Elit Ab","""+46 381 19 20 00""",http://www.eksjoenergi.se/,host240-197.eksjo.com,195.49.240.197,"2019-06-04 10:56:45","1113 * 890","5.0 (Windows NT 6.1; WOW64; Trident/7.0; SLCC2; .",Firefox,Desktop,14.99571,57.66106,Sweden,Eksjo,"Jonkopings Lan",,ee-ip.org/articles/detailed/c4a9bce1728be9d76641b9b9f01530fa/farewell-to-traditional-compressor-based-refrigeration,,www.google.com,0,1,0,0,www.ee-ip.org/articles/detailed/c4a9bce1728be9d76641b9b9f01530fa/farewell-to-traditional-compressor-based-refrigeration
Infras,"""+41 44 205 95 95""",https://www.infras.ch/,gw.infras.ch,212.55.200.18,"2019-06-04 10:47:35","1680 * 1050","5.0 (Windows NT 10.0; Win64; x64) AppleWebKit/537","Chrome/74.0.3729.169 Safari/537.36",Desktop,8.53695,47.37417,Switzerland,Zuerich,Zuerich,,ee-ip.org/articles/detailed/118b6fd8f841b469f817b35dbc32c344/more-than-ronaldo-how-5-innovative-portuguese-companies-drive-energy-efficiency,,www.linkedin.com,0,1,0,3516,"www.ee-ip.org/articles/detailed/118b6fd8f841b469f817b35dbc32c344/more-than-ronaldo-how-5-innovative-portuguese-companies-drive-energy-efficiency --> www.ee-ip.org --> www.ee-ip.org/nc/business-practices --> www.ee-ip.org/articles --> www.ee-ip.org/articles/detailed/acf17ceb7cc3ca018ef3b57f08c2ce0f/making-an-impact --> www.ee-ip.org --> www.ee-ip.org/articles --> www.ee-ip.org"
Cmtp,"1300 531 536",https://www.cmtp.com.au,ec2-18-234-211-74.compute-1.amazonaws.com,18.234.211.74,"2019-06-04 10:24:26","800 * 600","5.0 (X11; Linux x86_64) AppleWebKit/537.36 (KHTML","HeadlessChrome/73.0.3679.0 Safari/537.36",Desktop,-77.4742,39.0437,"United States",Ashburn,Virginia,,ee-ip.org,,,0,0,0,0,www.ee-ip.org
Greenfish,"""+32 2 333 09 90""",http://www.greenfish.eu/,217.111.181.42,217.111.181.42,"2019-06-04 10:22:57","1280 * 720","5.0 (Windows)",Firefox,Desktop,4.35249,50.84674,Belgium,Brussels,Brussels,,ee-ip.org,,www.google.com,0,1,0,166,"www.ee-ip.org --> www.ee-ip.org/about --> www.ee-ip.org/services"
"A Niemi Engineering Oy","""+358 40 5147 719""",http://www.niemiengineering.fi/,62-165-140-193.co.dnainternet.fi,62.165.140.193,"2019-06-04 07:30:19","1680 * 1050","5.0 (Windows NT 10.0; Win64; x64) AppleWebKit/537","Chrome/73.0.3683.103 Safari/537.36 OPR/60.0.3255.95",Desktop,28.23565,61.04668,Finland,Lappeenranta,Etela-Karjala,,ee-ip.org/articles,,www.ee-ip.org,0,0,0,0,www.ee-ip.org/articles
"National Electric Energy Agency","""+55 61 2192-8600""",http://www.aneel.gov.br/,200.198.220.131,200.198.220.131,"2019-06-03 22:40:23","1920 * 1080","5.0 (Windows NT 10.0; Win64; x64) AppleWebKit/537","Chrome/74.0.3729.108 Safari/537.36",Desktop,-47.90088,-15.74092,Brazil,Brasilia,"Distrito Federal",,ee-ip.org/articles/detailed/add4074d8ed903b257db63c17278173a/risk-minimization-for-energy-efficiency-projects,,www.google.com,0,1,0,0,www.ee-ip.org/articles/detailed/add4074d8ed903b257db63c17278173a/risk-minimization-for-energy-efficiency-projects
"Universidad Del Desarrollo","""+56 2 23279110""",http://www.udd.cl,proxy-alum.gw.udd.cl,201.221.123.46,"2019-06-03 21:52:39","1600 * 900","5.0 (Windows)",Firefox,Desktop,-70.656,-33.465,Chile,Santiago,"Region Metropolitana",,ee-ip.org/articles/detailed/597c40b4f191d141b0905cff80768f39/is-an-energy-revolution-underway-in-chile,,www.google.com,0,1,0,0,www.ee-ip.org/articles/detailed/597c40b4f191d141b0905cff80768f39/is-an-energy-revolution-underway-in-chile
"Universita  Degli Studi Di Catania",,,151.97.3.19,151.97.3.19,"2019-06-03 18:44:18","834 * 1112","5.0 (iPad; CPU OS 12_1_4 like Mac OS X) AppleWebK","Version/12.0 Mobile/15E148 Safari/604.1",Tablet,15.0964,37.541,Italy,Canalicchio,Catania,,www2.ee-ip.org/content/CompanyPage/show/enerit/file/124_UCC_First_University_to_Achieve_ISO_50001,,www.google.it,0,1,0,0,www.www2.ee-ip.org/content/CompanyPage/show/enerit/file/124_UCC_First_University_to_Achieve_ISO_50001
"Airbus Defence And Space","01 39 06 12 34",https://airbusdefenceandspace.com/,ip23.airbus.com,193.56.36.23,"2019-06-03 18:15:48","1536 * 961","5.0 (Windows NT 6.1; Win64; x64) AppleWebKit/537.","Chrome/74.0.3729.108 Safari/537.36",Desktop,1.39689,43.63456,France,Blagnac,Haute-Garonne,,ee-ip.org/articles/detailed/e3856df40e2342fa6e02d4d5d9e11afe/utilize-all-the-available-energy-heat-recovery,,www.google.com,0,1,0,0,www.ee-ip.org/articles/detailed/e3856df40e2342fa6e02d4d5d9e11afe/utilize-all-the-available-energy-heat-recovery
